{"type":"FeatureCollection","features":[{"type":"Feature","id":1,"geometry":{"type":"Point","coordinates":[103.8020372193653,1.267356204279249]},"properties":{"OBJECTID":1,"NAME":"LABRADOR NATURE RESERVE","X":24518.620900000002,"Y":27763.352265630001}},{"type":"Feature","id":2,"geometry":{"type":"Point","coordinates":[103.77909858021013,1.3540594774834185]},"properties":{"OBJECTID":2,"NAME":"BUKIT TIMAH NATURE RESERVE","X":21965.930550000001,"Y":37350.600831830001}},{"type":"Feature","id":3,"geometry":{"type":"Point","coordinates":[103.80744001762055,1.4012617805861975]},"properties":{"OBJECTID":3,"NAME":"UPPER SELETAR RESERVOIR PARK","X":25120.06739552,"Y":42569.940000000002}},{"type":"Feature","id":4,"geometry":{"type":"Point","coordinates":[103.8118660984769,1.372790931891346]},"properties":{"OBJECTID":4,"NAME":"UPPER PEIRCE RESERVOIR PARK","X":25612.601549999999,"Y":39421.772802580002}},{"type":"Feature","id":5,"geometry":{"type":"Point","coordinates":[103.82203885112,1.3826408205973073]},"properties":{"OBJECTID":5,"NAME":"THOMSON NATURE PARK","X":26744.709599999998,"Y":40510.915703010003}},{"type":"Feature","id":6,"geometry":{"type":"Point","coordinates":[103.82125945835783,1.3568152417612294]},"properties":{"OBJECTID":6,"NAME":"WINDSOR NATURE PARK","X":26657.95868598,"Y":37655.254999999997}},{"type":"Feature","id":7,"geometry":{"type":"Point","coordinates":[103.7794380914777,1.3768728987521912]},"properties":{"OBJECTID":7,"NAME":"CHESTNUT NATURE PARK","X":22003.770850000001,"Y":39873.192969360003}},{"type":"Feature","id":8,"geometry":{"type":"Point","coordinates":[103.78405998387908,1.3471603920567965]},"properties":{"OBJECTID":8,"NAME":"RIFLE RANGE NATURE PARK","X":22518.06314676,"Y":36587.723100000003}},{"type":"Feature","id":9,"geometry":{"type":"Point","coordinates":[103.82649974881977,1.3692147195643873]},"properties":{"OBJECTID":9,"NAME":"LOWER PEIRCE RESERVOIR PARK","X":27241.146649999999,"Y":39026.323786909998}},{"type":"Feature","id":10,"geometry":{"type":"Point","coordinates":[103.77835108165955,1.3678343883470532]},"properties":{"OBJECTID":10,"NAME":"ZHENGHUA NATURE PARK","X":21882.777249999999,"Y":38873.762802800004}},{"type":"Feature","id":11,"geometry":{"type":"Point","coordinates":[103.75607205285507,1.3573543336116221]},"properties":{"OBJECTID":11,"NAME":"BUKIT BATOK TOWN PARK","X":19403.350149999998,"Y":37714.99902186}},{"type":"Feature","id":12,"geometry":{"type":"Point","coordinates":[103.76462219368499,1.3500086942926157]},"properties":{"OBJECTID":12,"NAME":"BUKIT BATOK NATURE PARK","X":20354.859991609999,"Y":36902.7264}},{"type":"Feature","id":13,"geometry":{"type":"Point","coordinates":[103.80339748868586,1.2643669344593973]},"properties":{"OBJECTID":13,"NAME":"LABRADOR NATURE PARK","X":24670.004797400001,"Y":27432.8125}},{"type":"Feature","id":14,"geometry":{"type":"Point","coordinates":[103.8202989368223,1.4018864563587008]},"properties":{"OBJECTID":14,"NAME":"SPRINGLEAF NATURE PARK","X":26551.091039700001,"Y":42639.001550000001}},{"type":"Feature","id":15,"geometry":{"type":"Point","coordinates":[103.8056173588953,1.3807709717674379]},"properties":{"OBJECTID":15,"NAME":"CENTRAL CATCHMENT NATURE RESERVE","X":24917.203649999999,"Y":40304.172304150001}},{"type":"Feature","id":16,"geometry":{"type":"Point","coordinates":[103.98804174981142,1.403917815667064]},"properties":{"OBJECTID":16,"NAME":"PULAU SEKUDU","X":45218.589999999997,"Y":42864.184533430001}},{"type":"Feature","id":17,"geometry":{"type":"Point","coordinates":[104.05378181778914,1.4330328632249225]},"properties":{"OBJECTID":17,"NAME":"PULAU UNUM","X":52534.291949999999,"Y":46084.190409050003}},{"type":"Feature","id":18,"geometry":{"type":"Point","coordinates":[104.04685703680678,1.4370477517511775]},"properties":{"OBJECTID":18,"NAME":"BETING BRONOK","X":51763.621350000001,"Y":46528.06667511}},{"type":"Feature","id":19,"geometry":{"type":"Point","coordinates":[103.77355529295431,1.3626384775863845]},"properties":{"OBJECTID":19,"NAME":"DAIRY FARM NATURE PARK","X":21349.04895,"Y":38299.237881000001}},{"type":"Feature","id":20,"geometry":{"type":"Point","coordinates":[103.72452299950963,1.4447381191632054]},"properties":{"OBJECTID":20,"NAME":"SUNGEI BULOH WETLAND RESERVE","X":15892.74848957,"Y":47377.608399999997}},{"type":"Feature","id":21,"geometry":{"type":"Point","coordinates":[103.73491029435843,1.443494442808356]},"properties":{"OBJECTID":21,"NAME":"KRANJI COASTAL NATURE PARK","X":17048.687686689998,"Y":47240.036}},{"type":"Feature","id":22,"geometry":{"type":"Point","coordinates":[103.73782912907258,1.4396472545598169]},"properties":{"OBJECTID":22,"NAME":"KRANJI RESERVOIR PARK B","X":17373.491150000002,"Y":46814.618784060003}},{"type":"Feature","id":23,"geometry":{"type":"Point","coordinates":[103.73022739619705,1.4191552027465542]},"properties":{"OBJECTID":23,"NAME":"KRANJI MARSHES","X":16527.43239708,"Y":44548.743949999996}},{"type":"Feature","id":24,"geometry":{"type":"Point","coordinates":[103.71979436257163,1.4362850593518035]},"properties":{"OBJECTID":24,"NAME":"SUNGEI BULOH SOUTHERN EXTENSION","X":15366.477650000001,"Y":46442.935381559997}},{"type":"Feature","id":25,"geometry":{"type":"Point","coordinates":[103.74293952628184,1.4382098785134965]},"properties":{"OBJECTID":25,"NAME":"KRANJI RESERVOIR PARK A","X":17942.193950000001,"Y":46655.657639390003}},{"type":"Feature","id":26,"geometry":{"type":"Point","coordinates":[103.80514529311107,1.2677204017234178]},"properties":{"OBJECTID":26,"NAME":"BERLAYER CREEK","X":24864.526450000001,"Y":27803.619373509999}},{"type":"Feature","id":27,"geometry":{"type":"Point","coordinates":[103.96541181276811,1.4137521320857342]},"properties":{"OBJECTID":27,"NAME":"PULAU UBIN AND CHEK JAWA","X":42700.118476329997,"Y":43951.462050000002}},{"type":"Feature","id":28,"geometry":{"type":"Point","coordinates":[103.77932119660633,1.3413819155173663]},"properties":{"OBJECTID":28,"NAME":"RAILWAY CORRIDOR RIFLE RANGE CONNECTOR","X":21990.674149999999,"Y":35948.779638480002}},{"type":"Feature","id":29,"geometry":{"type":"Point","coordinates":[103.77603671278706,1.3502436897460119]},"properties":{"OBJECTID":29,"NAME":"HINDHEDE NATURE PARK","X":21625.1695,"Y":36928.678109519999}},{"type":"Feature","id":30,"geometry":{"type":"Point","coordinates":[103.7535615435598,1.4034046970832672]},"properties":{"OBJECTID":30,"NAME":"RAIL CORRIDOR","X":19124.130000000001,"Y":42807.028295210002}},{"type":"Feature","id":31,"geometry":{"type":"Point","coordinates":[103.80741828570511,1.2652889536400571]},"properties":{"OBJECTID":31,"NAME":"BUKIT CHERMIN BOARDWALK","X":25117.490737060001,"Y":27534.759849999999}},{"type":"Feature","id":32,"geometry":{"type":"Point","coordinates":[103.83628135800585,1.343450909087146]},"properties":{"OBJECTID":32,"NAME":"MACRITCHIE RESERVOIR PK","X":28329.725005479999,"Y":36177.492199990003}},{"type":"Feature","id":33,"geometry":{"type":"Point","coordinates":[103.855695269338,1.350448945955822]},"properties":{"OBJECTID":33,"NAME":"KALLANG LINEAR PARK","X":30490.274600000001,"Y":36951.310565139996}},{"type":"Feature","id":34,"geometry":{"type":"Point","coordinates":[103.87522010900422,1.338695399595206]},"properties":{"OBJECTID":34,"NAME":"OLD UPPER ALJUNIED ROAD","X":32663.192784089999,"Y":35651.691949990003}},{"type":"Feature","id":35,"geometry":{"type":"Point","coordinates":[103.8495024035567,1.2944825682476571]},"properties":{"OBJECTID":35,"NAME":"ARMENIAN STREET (FCP)","X":29801.118350000001,"Y":30762.830081880002}},{"type":"Feature","id":36,"geometry":{"type":"Point","coordinates":[103.85327993307943,1.2898550095739831]},"properties":{"OBJECTID":36,"NAME":"CONNAUGHT DRIVE","X":30221.5285,"Y":30251.14146354}},{"type":"Feature","id":37,"geometry":{"type":"Point","coordinates":[103.84788253737088,1.2964151858156534]},"properties":{"OBJECTID":37,"NAME":"CANNING RISE (FCP)","X":29620.840199999999,"Y":30976.527916089999}},{"type":"Feature","id":38,"geometry":{"type":"Point","coordinates":[103.81847352134145,1.3024565695099892]},"properties":{"OBJECTID":38,"NAME":"CAMP ROAD INTERIM PARK","X":26347.87977675,"Y":31644.55324999}},{"type":"Feature","id":39,"geometry":{"type":"Point","coordinates":[103.9759334480344,1.3902147218020191]},"properties":{"OBJECTID":39,"NAME":"CHANGI WEST BOARDWALK (CHANGI BC)","X":43871.189299999998,"Y":41348.875379650002}},{"type":"Feature","id":40,"geometry":{"type":"Point","coordinates":[103.98731252320438,1.3912069094980077]},"properties":{"OBJECTID":40,"NAME":"CHANGI PT FERRY TERMINAL","X":45137.528912009999,"Y":41458.666399989997}},{"type":"Feature","id":41,"geometry":{"type":"Point","coordinates":[103.94687554887881,1.3290293360905583]},"properties":{"OBJECTID":41,"NAME":"TANAH MERAH PG","X":40637.734499999999,"Y":34583.118686499998}},{"type":"Feature","id":42,"geometry":{"type":"Point","coordinates":[103.96854744421532,1.3595473597296697]},"properties":{"OBJECTID":42,"NAME":"MARIAM WALK PG","X":43049.413050000003,"Y":37957.776622279998}},{"type":"Feature","id":43,"geometry":{"type":"Point","coordinates":[103.96563729241967,1.3630395003067224]},"properties":{"OBJECTID":43,"NAME":"LOYANG VIEW PG","X":42725.525000000001,"Y":38343.902777429998}},{"type":"Feature","id":44,"geometry":{"type":"Point","coordinates":[103.94904499138299,1.324734002766244]},"properties":{"OBJECTID":44,"NAME":"JLN LIMAU MANIS PG","X":40879.193910590002,"Y":34108.172999989998}},{"type":"Feature","id":45,"geometry":{"type":"Point","coordinates":[103.95622497877842,1.3371839888180481]},"properties":{"OBJECTID":45,"NAME":"JLN ANGIN LAUT PG","X":41678.187449999998,"Y":35484.870274549998}},{"type":"Feature","id":46,"geometry":{"type":"Point","coordinates":[103.96350603982197,1.3474044390215929]},"properties":{"OBJECTID":46,"NAME":"MERA TERRACE PG","X":42488.434000000001,"Y":36615.040058949999}},{"type":"Feature","id":47,"geometry":{"type":"Point","coordinates":[103.95756375074507,1.323160024115253]},"properties":{"OBJECTID":47,"NAME":"EASTWOOD PK PG","X":41827.256897810003,"Y":33934.175999990002}},{"type":"Feature","id":48,"geometry":{"type":"Point","coordinates":[103.95016432778705,1.3297574948727167]},"properties":{"OBJECTID":48,"NAME":"JLN CHEMPAKA KUNING PG","X":41003.738826189998,"Y":34663.651999989997}},{"type":"Feature","id":49,"geometry":{"type":"Point","coordinates":[103.94696150148619,1.3338302667621265]},"properties":{"OBJECTID":49,"NAME":"JLN PARI BURONG PG","X":40647.275656530001,"Y":35113.982499990001}},{"type":"Feature","id":50,"geometry":{"type":"Point","coordinates":[103.9438804788435,1.3330205537387907]},"properties":{"OBJECTID":50,"NAME":"JLN PARI DEDAP PG","X":40304.393499999998,"Y":35024.432785539997}},{"type":"Feature","id":51,"geometry":{"type":"Point","coordinates":[103.9603400330171,1.3461443277769334]},"properties":{"OBJECTID":51,"NAME":"JLN PELATOK PG","X":42136.098858730002,"Y":36475.684499989999}},{"type":"Feature","id":52,"geometry":{"type":"Point","coordinates":[103.96028263817686,1.3443834054676365]},"properties":{"OBJECTID":52,"NAME":"MERAGI RD PG","X":42129.721550000002,"Y":36280.969905929996}},{"type":"Feature","id":53,"geometry":{"type":"Point","coordinates":[103.95824012802514,1.3390909036288612]},"properties":{"OBJECTID":53,"NAME":"SUNBIRD CIRCLE PG","X":41902.441862500003,"Y":35695.73899998}},{"type":"Feature","id":54,"geometry":{"type":"Point","coordinates":[103.9539785936791,1.3244296378835401]},"properties":{"OBJECTID":54,"NAME":"PESARI WALK PG","X":41428.256986940003,"Y":34074.543999989997}},{"type":"Feature","id":55,"geometry":{"type":"Point","coordinates":[103.95308237796718,1.3274173484689635]},"properties":{"OBJECTID":55,"NAME":"BEDOK RIA CRESCENT PG","X":41328.500999999997,"Y":34404.905576949997}},{"type":"Feature","id":56,"geometry":{"type":"Point","coordinates":[103.95519192385743,1.3406590280781581]},"properties":{"OBJECTID":56,"NAME":"HARVEY CRESCENT PG","X":41563.199999999997,"Y":35869.117499059997}},{"type":"Feature","id":57,"geometry":{"type":"Point","coordinates":[103.96623348811329,1.3619451550131056]},"properties":{"OBJECTID":57,"NAME":"MARIAM WAY PG","X":42791.881422799997,"Y":38222.898999980003}},{"type":"Feature","id":58,"geometry":{"type":"Point","coordinates":[103.94750561924357,1.3255436014309503]},"properties":{"OBJECTID":58,"NAME":"BEDOK TERRACE PG","X":40707.872787,"Y":34197.686549990001}},{"type":"Feature","id":59,"geometry":{"type":"Point","coordinates":[103.95175430405384,1.3207095314104476]},"properties":{"OBJECTID":59,"NAME":"KEW DR PG","X":41180.735000000001,"Y":33663.180857350002}},{"type":"Feature","id":60,"geometry":{"type":"Point","coordinates":[103.95069132925602,1.3224821249750645]},"properties":{"OBJECTID":60,"NAME":"LIMAU GARDEN PG","X":41062.426892650001,"Y":33859.179999990003}},{"type":"Feature","id":61,"geometry":{"type":"Point","coordinates":[103.94137612219359,1.3192870715386174]},"properties":{"OBJECTID":61,"NAME":"LUCKY GARDENS PG","X":40025.750500000002,"Y":33505.83971683}},{"type":"Feature","id":62,"geometry":{"type":"Point","coordinates":[103.93628016907121,1.3169670574437697]},"properties":{"OBJECTID":62,"NAME":"SENNETT AVE PG","X":39458.630643570003,"Y":33249.279999990002}},{"type":"Feature","id":63,"geometry":{"type":"Point","coordinates":[103.94638906084539,1.3239737649827956]},"properties":{"OBJECTID":63,"NAME":"JLN LIMAU KASTURI PG","X":40583.618764929997,"Y":34024.096049990003}},{"type":"Feature","id":64,"geometry":{"type":"Point","coordinates":[103.94845050181046,1.3216265387648582]},"properties":{"OBJECTID":64,"NAME":"KEW AVE PG","X":40813.048999999999,"Y":33764.561796800001}},{"type":"Feature","id":65,"geometry":{"type":"Point","coordinates":[103.94858574719049,1.3191875527603303]},"properties":{"OBJECTID":65,"NAME":"KEW CRESCENT PG","X":40828.112999999998,"Y":33494.871376299998}},{"type":"Feature","id":66,"geometry":{"type":"Point","coordinates":[103.95051409597892,1.323872450926419]},"properties":{"OBJECTID":66,"NAME":"LIMAU VILLAS PG","X":41042.695314550001,"Y":34012.914499990002}},{"type":"Feature","id":67,"geometry":{"type":"Point","coordinates":[103.97220437477233,1.3628436477636612]},"properties":{"OBJECTID":67,"NAME":"CHANGI HEIGHTS PG","X":43456.367068829997,"Y":38322.287499990001}},{"type":"Feature","id":68,"geometry":{"type":"Point","coordinates":[103.97897923032566,1.3899035701307045]},"properties":{"OBJECTID":68,"NAME":"TURNHOUSE PK","X":44210.148300000001,"Y":41314.49036638}},{"type":"Feature","id":69,"geometry":{"type":"Point","coordinates":[103.93933426138598,1.3187872216619958]},"properties":{"OBJECTID":69,"NAME":"SENNETT AVE OS","X":39798.513364799997,"Y":33450.558999989997}},{"type":"Feature","id":70,"geometry":{"type":"Point","coordinates":[103.94622771976445,1.3244942567211289]},"properties":{"OBJECTID":70,"NAME":"JLN LIMAU KASTURI OS","X":40565.660499999998,"Y":34081.648553159997}},{"type":"Feature","id":71,"geometry":{"type":"Point","coordinates":[103.96085682394701,1.3461745741609257]},"properties":{"OBJECTID":71,"NAME":"JLN PELATOK OS","X":42193.612000000001,"Y":36479.031999990002}},{"type":"Feature","id":72,"geometry":{"type":"Point","coordinates":[103.98418177001933,1.3922188152832382]},"properties":{"OBJECTID":72,"NAME":"CHANGI EAST BOARDWALK (CHANGI FERRY TER)","X":44789.108676329997,"Y":41570.535699990003}},{"type":"Feature","id":73,"geometry":{"type":"Point","coordinates":[103.98911988020669,1.3902051843405949]},"properties":{"OBJECTID":73,"NAME":"CHANGI POINT PROMENADE","X":45338.672079119999,"Y":41347.913499989998}},{"type":"Feature","id":74,"geometry":{"type":"Point","coordinates":[103.98826627962663,1.3904325383799849]},"properties":{"OBJECTID":74,"NAME":"CHANGI POINT WATERFRONT PK","X":45243.675461519997,"Y":41373.046999979997}},{"type":"Feature","id":75,"geometry":{"type":"Point","coordinates":[103.8695862425583,1.2940495430765617]},"properties":{"OBJECTID":75,"NAME":"EAST COAST PARK AREA A","X":32036.275309879999,"Y":30714.971499989999}},{"type":"Feature","id":76,"geometry":{"type":"Point","coordinates":[103.9001313600413,1.2964678008886765]},"properties":{"OBJECTID":76,"NAME":"EAST COAST PARK AREA B","X":35435.675246439998,"Y":30982.43919999}},{"type":"Feature","id":77,"geometry":{"type":"Point","coordinates":[103.9124608129566,1.3003516412785827]},"properties":{"OBJECTID":77,"NAME":"EAST COAST PARK AREA C","X":36807.822304100002,"Y":31411.934249990001}},{"type":"Feature","id":78,"geometry":{"type":"Point","coordinates":[103.92522216230093,1.3042740200267717]},"properties":{"OBJECTID":78,"NAME":"EAST COAST PARK AREA D","X":38228.03164229,"Y":31845.699349990002}},{"type":"Feature","id":79,"geometry":{"type":"Point","coordinates":[103.93262756176311,1.3070449786398985]},"properties":{"OBJECTID":79,"NAME":"EAST COAST PARK AREA E","X":39052.173787740001,"Y":32152.129399990001}},{"type":"Feature","id":80,"geometry":{"type":"Point","coordinates":[103.93960025910638,1.3094728613979874]},"properties":{"OBJECTID":80,"NAME":"EAST COAST PARK AREA F","X":39828.160158320003,"Y":32420.624449989999}},{"type":"Feature","id":81,"geometry":{"type":"Point","coordinates":[103.95838226458031,1.3136017962337767]},"properties":{"OBJECTID":81,"NAME":"EAST COAST PARK AREA G","X":41918.402632520003,"Y":32877.278349990003}},{"type":"Feature","id":82,"geometry":{"type":"Point","coordinates":[103.96739962650977,1.3156703807949146]},"properties":{"OBJECTID":82,"NAME":"EAST COAST PARK AREA H","X":42921.938961,"Y":33106.064449990001}},{"type":"Feature","id":83,"geometry":{"type":"Point","coordinates":[103.92387217567484,1.3349549871052688]},"properties":{"OBJECTID":83,"NAME":"BEDOK TOWN PK","X":38077.666774329999,"Y":35238.241949989999}},{"type":"Feature","id":84,"geometry":{"type":"Point","coordinates":[103.92681170207061,1.3459933259139159]},"properties":{"OBJECTID":84,"NAME":"BEDOK RESERVOIR PK","X":38404.758950000003,"Y":36458.818761850001}},{"type":"Feature","id":85,"geometry":{"type":"Point","coordinates":[103.92150194857041,1.3154230233745818]},"properties":{"OBJECTID":85,"NAME":"YARROW PARK","X":37813.962022159998,"Y":33078.485399990001}},{"type":"Feature","id":86,"geometry":{"type":"Point","coordinates":[103.92840651937104,1.3112841044746675]},"properties":{"OBJECTID":86,"NAME":"SIGLAP LINEAR PK (UPP EC RD-M PARADE)","X":38582.392500000002,"Y":32620.852551489999}},{"type":"Feature","id":87,"geometry":{"type":"Point","coordinates":[103.89732193154623,1.3001741105275457]},"properties":{"OBJECTID":87,"NAME":"TANJONG KATONG RD SOUTH PG","X":35123,"Y":31392.256039069998}},{"type":"Feature","id":88,"geometry":{"type":"Point","coordinates":[103.91938448273029,1.3084825975000169]},"properties":{"OBJECTID":88,"NAME":"JLN BULOH PERINDU PG","X":37578.33455,"Y":32311.039692040002}},{"type":"Feature","id":89,"geometry":{"type":"Point","coordinates":[103.89419707868944,1.298568516607628]},"properties":{"OBJECTID":89,"NAME":"MEYER RD PG","X":34775.235999999997,"Y":31214.708959420001}},{"type":"Feature","id":90,"geometry":{"type":"Point","coordinates":[103.92380556094116,1.3109600906547869]},"properties":{"OBJECTID":90,"NAME":"EAST COAST TERRACE PK","X":38070.349999999999,"Y":32585.005775109999}},{"type":"Feature","id":91,"geometry":{"type":"Point","coordinates":[103.91428584740629,1.315364761626945]},"properties":{"OBJECTID":91,"NAME":"TELOK KURAU PK","X":37010.878900000003,"Y":33072.015914850002}},{"type":"Feature","id":92,"geometry":{"type":"Point","coordinates":[103.92430631411794,1.3155988452075453]},"properties":{"OBJECTID":92,"NAME":"ELITE TERRACE PK","X":38126.0605,"Y":33097.938051669997}},{"type":"Feature","id":93,"geometry":{"type":"Point","coordinates":[103.92740863602118,1.3143798428279883]},"properties":{"OBJECTID":93,"NAME":"SIGLAP LINEAR PK (JLN B'WAN-UPP EC RD)","X":38471.324500000002,"Y":32963.159662569997}},{"type":"Feature","id":94,"geometry":{"type":"Point","coordinates":[103.88765907111089,1.3217717845216927]},"properties":{"OBJECTID":94,"NAME":"GEYLANG EAST PK","X":34047.557999999997,"Y":33780.391634090003}},{"type":"Feature","id":95,"geometry":{"type":"Point","coordinates":[103.91765634990739,1.3130354768421939]},"properties":{"OBJECTID":95,"NAME":"GREENFIELD DR PG","X":37385.992400000003,"Y":32814.467743770001}},{"type":"Feature","id":96,"geometry":{"type":"Point","coordinates":[103.92383794558941,1.3212075676318946]},"properties":{"OBJECTID":96,"NAME":"BANGSAWAN PK","X":38073.913,"Y":33718.120729950002}},{"type":"Feature","id":97,"geometry":{"type":"Point","coordinates":[103.92792692780097,1.319379621733533]},"properties":{"OBJECTID":97,"NAME":"AIDA PK","X":38528.984499999999,"Y":33516.012473739996}},{"type":"Feature","id":98,"geometry":{"type":"Point","coordinates":[103.91556908211406,1.3290153443376747]},"properties":{"OBJECTID":98,"NAME":"JLN SENANG PG","X":37153.640691089997,"Y":34581.433499990002}},{"type":"Feature","id":99,"geometry":{"type":"Point","coordinates":[103.92445612755219,1.3201011447755768]},"properties":{"OBJECTID":99,"NAME":"OPERA ESTATE FOOTBALL FIELD","X":38142.715049999999,"Y":33595.780515710001}},{"type":"Feature","id":100,"geometry":{"type":"Point","coordinates":[103.89895133769063,1.3115022361545772]},"properties":{"OBJECTID":100,"NAME":"CARPMAEL PARK","X":35304.305704730003,"Y":32644.867299990001}},{"type":"Feature","id":101,"geometry":{"type":"Point","coordinates":[103.91440219019876,1.3250033047513079]},"properties":{"OBJECTID":101,"NAME":"TAMAN KEMBANGAN PG","X":37023.792013099999,"Y":34137.79804999}},{"type":"Feature","id":102,"geometry":{"type":"Point","coordinates":[103.91917852870084,1.3230230142980837]},"properties":{"OBJECTID":102,"NAME":"WARINGIN PK PG","X":37555.358500000002,"Y":33918.845291539998}},{"type":"Feature","id":103,"geometry":{"type":"Point","coordinates":[103.88821400899496,1.3038882288106799]},"properties":{"OBJECTID":103,"NAME":"ARTHUR PK","X":34109.360500000003,"Y":31802.920356679999}},{"type":"Feature","id":104,"geometry":{"type":"Point","coordinates":[103.88936940225831,1.313633000793319]},"properties":{"OBJECTID":104,"NAME":"LORONG 40 GEYLANG PG","X":34237.921157299999,"Y":32880.450499990002}},{"type":"Feature","id":105,"geometry":{"type":"Point","coordinates":[103.89239730438597,1.3145512726897666]},"properties":{"OBJECTID":105,"NAME":"GUILLEMARD RD OS","X":34574.895499999999,"Y":32981.996069610002}},{"type":"Feature","id":106,"geometry":{"type":"Point","coordinates":[103.9215767962677,1.3216332972410234]},"properties":{"OBJECTID":106,"NAME":"INTERIM PK AT TERANG BULAN AVE","X":37822.267500000002,"Y":33765.18672795}},{"type":"Feature","id":107,"geometry":{"type":"Point","coordinates":[103.88330755751575,1.30574055045791]},"properties":{"OBJECTID":107,"NAME":"MT BATTEN RD/OLD AIRPORT RD OS","X":33563.313000000002,"Y":32007.72928277}},{"type":"Feature","id":108,"geometry":{"type":"Point","coordinates":[103.88634784301111,1.2971665037074374]},"properties":{"OBJECTID":108,"NAME":"KATONG PK","X":33901.688757130003,"Y":31059.661949990001}},{"type":"Feature","id":109,"geometry":{"type":"Point","coordinates":[103.90802872780476,1.3048983342903429]},"properties":{"OBJECTID":109,"NAME":"MARINE PARADE RD PK","X":36314.555654229996,"Y":31914.669499989999}},{"type":"Feature","id":110,"geometry":{"type":"Point","coordinates":[103.88731326519634,1.3016518077516772]},"properties":{"OBJECTID":110,"NAME":"WILKINSON INTERIM PK","X":34009.121210639998,"Y":31555.62624999}},{"type":"Feature","id":111,"geometry":{"type":"Point","coordinates":[103.90074024162854,1.3065193220475451]},"properties":{"OBJECTID":111,"NAME":"HAIG WALK (GEYLANG RD-DUNMAN RD)","X":35503.408649999998,"Y":32093.887245260001}},{"type":"Feature","id":112,"geometry":{"type":"Point","coordinates":[103.90169892988682,1.3144083767581638]},"properties":{"OBJECTID":112,"NAME":"JOO CHIAT TERRACE PK","X":35610.078049999996,"Y":32966.221757159998}},{"type":"Feature","id":113,"geometry":{"type":"Point","coordinates":[103.90608246484213,1.3201437219363781]},"properties":{"OBJECTID":113,"NAME":"LORONG SARINA INTERIM PK","X":36097.905274409997,"Y":33600.421149989998}},{"type":"Feature","id":114,"geometry":{"type":"Point","coordinates":[103.9058590154343,1.3231990261361759]},"properties":{"OBJECTID":114,"NAME":"JLN ISMAIL PK","X":36073.027688599999,"Y":33938.26049999}},{"type":"Feature","id":115,"geometry":{"type":"Point","coordinates":[103.95217308419335,1.378684204466107]},"properties":{"OBJECTID":115,"NAME":"PASIR RIS PK","X":41227.027999999998,"Y":40073.740167700002}},{"type":"Feature","id":116,"geometry":{"type":"Point","coordinates":[103.95240633384716,1.3716892154609006]},"properties":{"OBJECTID":116,"NAME":"PASIR RIS TOWN PK","X":41253.024400000002,"Y":39300.269467279999}},{"type":"Feature","id":117,"geometry":{"type":"Point","coordinates":[103.94344045133047,1.358555426020648]},"properties":{"OBJECTID":117,"NAME":"SUN PLAZA PK","X":40255.295547299997,"Y":37847.951549990001}},{"type":"Feature","id":118,"geometry":{"type":"Point","coordinates":[103.94600303665655,1.378883969790186]},"properties":{"OBJECTID":118,"NAME":"SG API API PK","X":40540.376493600001,"Y":40095.795899980003}},{"type":"Feature","id":119,"geometry":{"type":"Point","coordinates":[103.94108425200558,1.3722284299777547]},"properties":{"OBJECTID":119,"NAME":"ELIAS TERRACE PG","X":39993.009590740003,"Y":39359.833499990003}},{"type":"Feature","id":120,"geometry":{"type":"Point","coordinates":[103.79805321601928,1.2790779706631137]},"properties":{"OBJECTID":120,"NAME":"HORTPARK","X":24075.24914018,"Y":29059.490549990001}},{"type":"Feature","id":121,"geometry":{"type":"Point","coordinates":[103.79387132126212,1.281589774272301]},"properties":{"OBJECTID":121,"NAME":"PASIR PANJANG NURSERY","X":23609.842049999999,"Y":29337.23955703}},{"type":"Feature","id":122,"geometry":{"type":"Point","coordinates":[103.72747774076977,1.4172750323139833]},"properties":{"OBJECTID":122,"NAME":"NATIVE PLANT CENTRE","X":16221.42541347,"Y":44340.857699990003}},{"type":"Feature","id":123,"geometry":{"type":"Point","coordinates":[103.84921504660437,1.3160787636454023]},"properties":{"OBJECTID":123,"NAME":"PEK KIO PARK","X":29769.123,"Y":33150.826114130003}},{"type":"Feature","id":124,"geometry":{"type":"Point","coordinates":[103.85028589165374,1.3705710218874325]},"properties":{"OBJECTID":124,"NAME":"ANG MO KIO TOWN GARDEN EAST","X":29888.2559,"Y":39176.302431540003}},{"type":"Feature","id":125,"geometry":{"type":"Point","coordinates":[103.8427395942111,1.3745094714262072]},"properties":{"OBJECTID":125,"NAME":"ANG MO KIO TOWN GARDEN WEST","X":29048.442937330001,"Y":39611.791499990002}},{"type":"Feature","id":126,"geometry":{"type":"Point","coordinates":[103.83640855422084,1.3652068985914549]},"properties":{"OBJECTID":126,"NAME":"BISHAN-ANG MO KIO PARK (POND GARDENS)","X":28343.877530599999,"Y":38583.158549990003}},{"type":"Feature","id":127,"geometry":{"type":"Point","coordinates":[103.84886679994811,1.3605206612391523]},"properties":{"OBJECTID":127,"NAME":"BISHAN-ANG MO KIO PARK (RIVER PLAINS)","X":29730.335358920001,"Y":38064.983599990002}},{"type":"Feature","id":128,"geometry":{"type":"Point","coordinates":[103.86600839566016,1.3604796821887382]},"properties":{"OBJECTID":128,"NAME":"CHUAN GREEN PG","X":31637.994999999999,"Y":38060.471406470002}},{"type":"Feature","id":129,"geometry":{"type":"Point","coordinates":[103.83278502528951,1.3716264409438859]},"properties":{"OBJECTID":129,"NAME":"ST. NICHOLAS VIEW PLAYGROUND","X":27940.621999999999,"Y":39292.998586549998}},{"type":"Feature","id":130,"geometry":{"type":"Point","coordinates":[103.83453036042759,1.372002308967111]},"properties":{"OBJECTID":130,"NAME":"ELLINGTON SQUARE PLAYGROUND","X":28134.856500000002,"Y":39334.560191429999}},{"type":"Feature","id":131,"geometry":{"type":"Point","coordinates":[103.82983449183553,1.3734758941034848]},"properties":{"OBJECTID":131,"NAME":"GELENGGANG PARK","X":27612.263929140001,"Y":39497.501999979999}},{"type":"Feature","id":132,"geometry":{"type":"Point","coordinates":[103.82929233400442,1.3724595958171455]},"properties":{"OBJECTID":132,"NAME":"LEBAN PARK","X":27551.928208720001,"Y":39385.124999990003}},{"type":"Feature","id":133,"geometry":{"type":"Point","coordinates":[103.83952885224147,1.3727323067423005]},"properties":{"OBJECTID":133,"NAME":"MAYFLOWER CRESCENT PG","X":28691.12743434,"Y":39415.280549989999}},{"type":"Feature","id":134,"geometry":{"type":"Point","coordinates":[103.83455966687733,1.3799210099648818]},"properties":{"OBJECTID":134,"NAME":"SERENADE WALK PG","X":28138.1175,"Y":40210.169942400003}},{"type":"Feature","id":135,"geometry":{"type":"Point","coordinates":[103.83239200313676,1.3710206044793614]},"properties":{"OBJECTID":135,"NAME":"SHANGRI-LA PLAYGROUND","X":27896.88335,"Y":39226.008256139998}},{"type":"Feature","id":136,"geometry":{"type":"Point","coordinates":[103.85750994675662,1.3870117216117048]},"properties":{"OBJECTID":136,"NAME":"SUNRISE CLOSE PG","X":30692.18705,"Y":40994.238512780001}},{"type":"Feature","id":137,"geometry":{"type":"Point","coordinates":[103.85736958326423,1.3883057124857408]},"properties":{"OBJECTID":137,"NAME":"SUNRISE DR PG I","X":30676.564999999999,"Y":41137.321326459998}},{"type":"Feature","id":138,"geometry":{"type":"Point","coordinates":[103.85660014074122,1.3869426039108539]},"properties":{"OBJECTID":138,"NAME":"SUNRISE PLACE PG","X":30590.9375,"Y":40986.594821699997}},{"type":"Feature","id":139,"geometry":{"type":"Point","coordinates":[103.85668008439829,1.3876742987723807]},"properties":{"OBJECTID":139,"NAME":"SUNRISE WAY PG","X":30599.83339829,"Y":41067.501999979999}},{"type":"Feature","id":140,"geometry":{"type":"Point","coordinates":[103.82919950234891,1.3819922656658334]},"properties":{"OBJECTID":140,"NAME":"TEACHER`S ESTATE PG","X":27541.598999999998,"Y":40439.199153790003}},{"type":"Feature","id":141,"geometry":{"type":"Point","coordinates":[103.83262325345856,1.3786921826899312]},"properties":{"OBJECTID":141,"NAME":"THOMSON GREEN PG","X":27922.618999999999,"Y":40074.292400589999}},{"type":"Feature","id":142,"geometry":{"type":"Point","coordinates":[103.83248564324285,1.3760005695093724]},"properties":{"OBJECTID":142,"NAME":"THOMSON WALK PG","X":27907.304639090002,"Y":39776.667549990001}},{"type":"Feature","id":143,"geometry":{"type":"Point","coordinates":[103.83748739794767,1.3806810614421143]},"properties":{"OBJECTID":143,"NAME":"YIO CHU KANG GARDENS PG","X":28463.937000000002,"Y":40294.212887330003}},{"type":"Feature","id":144,"geometry":{"type":"Point","coordinates":[103.85611706221468,1.3882473907685913]},"properties":{"OBJECTID":144,"NAME":"SUNRISE TERRACE OS","X":30537.175667529998,"Y":41130.870999990002}},{"type":"Feature","id":145,"geometry":{"type":"Point","coordinates":[103.8522364751832,1.3901090514350167]},"properties":{"OBJECTID":145,"NAME":"CACTUS RD PG","X":30105.314999999999,"Y":41336.720218429997}},{"type":"Feature","id":146,"geometry":{"type":"Point","coordinates":[103.85525165964455,1.3903014178121826]},"properties":{"OBJECTID":146,"NAME":"SUNRISE DR PG II","X":30440.8655,"Y":41357.993981400003}},{"type":"Feature","id":147,"geometry":{"type":"Point","coordinates":[103.86387162020543,1.359630704066999]},"properties":{"OBJECTID":147,"NAME":"CHARTWELL DR PK","X":31400.198,"Y":37966.592637970003}},{"type":"Feature","id":148,"geometry":{"type":"Point","coordinates":[103.8656694375827,1.3604248823125991]},"properties":{"OBJECTID":148,"NAME":"GARDEN VIEW PG","X":31600.273000000001,"Y":38054.411408369997}},{"type":"Feature","id":149,"geometry":{"type":"Point","coordinates":[103.86739535755741,1.347142606318519]},"properties":{"OBJECTID":149,"NAME":"JLN RIANG PG","X":31792.368356520001,"Y":36585.727499989996}},{"type":"Feature","id":150,"geometry":{"type":"Point","coordinates":[103.8617432585592,1.3527669553311927]},"properties":{"OBJECTID":150,"NAME":"MEI HWAN CRESCENT PG","X":31163.345000000001,"Y":37207.631288080003}},{"type":"Feature","id":151,"geometry":{"type":"Point","coordinates":[103.86347279914047,1.3533500946535582]},"properties":{"OBJECTID":151,"NAME":"MEI HWAN DR PG","X":31355.822499999998,"Y":37272.114225600002}},{"type":"Feature","id":152,"geometry":{"type":"Point","coordinates":[103.8603394027534,1.356445511239319]},"properties":{"OBJECTID":152,"NAME":"TAI HWAN TERRACE PG","X":31007.10716349,"Y":37614.38549999}},{"type":"Feature","id":153,"geometry":{"type":"Point","coordinates":[103.86535828554187,1.3702072455001193]},"properties":{"OBJECTID":153,"NAME":"TAVISTOCK AVE PK","X":31565.631000000001,"Y":39136.094973090003}},{"type":"Feature","id":154,"geometry":{"type":"Point","coordinates":[103.86755286023556,1.3572217609344281]},"properties":{"OBJECTID":154,"NAME":"CHUAN WALK PG","X":31809.881000000001,"Y":37700.229357459997}},{"type":"Feature","id":155,"geometry":{"type":"Point","coordinates":[103.86745449486286,1.35758477322631]},"properties":{"OBJECTID":155,"NAME":"COLCHESTER GROVE OS","X":31798.93345,"Y":37740.369284460001}},{"type":"Feature","id":156,"geometry":{"type":"Point","coordinates":[103.84354841240868,1.3486736465484725]},"properties":{"OBJECTID":156,"NAME":"BINCHANG RISE PG","X":29138.466499999999,"Y":36754.997984330003}},{"type":"Feature","id":157,"geometry":{"type":"Point","coordinates":[103.83436394111058,1.3542910958739249]},"properties":{"OBJECTID":157,"NAME":"THOMSON PK","X":28116.336899999998,"Y":37376.144461039999}},{"type":"Feature","id":158,"geometry":{"type":"Point","coordinates":[103.84602143139854,1.3501771180761599]},"properties":{"OBJECTID":158,"NAME":"CLOVER WAY PG","X":29413.685145290001,"Y":36921.24549999}},{"type":"Feature","id":159,"geometry":{"type":"Point","coordinates":[103.83352102521286,1.3621074576917207]},"properties":{"OBJECTID":159,"NAME":"FULTON AVE PG","X":28022.5298578,"Y":38240.437949990002}},{"type":"Feature","id":160,"geometry":{"type":"Point","coordinates":[103.82843911048238,1.3619988729063952]},"properties":{"OBJECTID":160,"NAME":"ISLAND GDNS WALK PG","X":27456.9725,"Y":38228.431729080003}},{"type":"Feature","id":161,"geometry":{"type":"Point","coordinates":[103.83997321893165,1.3539456694819354]},"properties":{"OBJECTID":161,"NAME":"JLN PINTAU PG","X":28740.585662670001,"Y":37337.950049990002}},{"type":"Feature","id":162,"geometry":{"type":"Point","coordinates":[103.8251367708756,1.3582711671757906]},"properties":{"OBJECTID":162,"NAME":"JUPITER PLAYGROUND","X":27089.459528160001,"Y":37816.242049990004}},{"type":"Feature","id":163,"geometry":{"type":"Point","coordinates":[103.84271956041231,1.3533699374510719]},"properties":{"OBJECTID":163,"NAME":"PEMIMPIN PLACE PG","X":29046.2225,"Y":37274.289464770001}},{"type":"Feature","id":164,"geometry":{"type":"Point","coordinates":[103.83202835279195,1.3536471358303632]},"properties":{"OBJECTID":164,"NAME":"SOO CHOW WALK PG","X":27856.412499999999,"Y":37304.938691789997}},{"type":"Feature","id":165,"geometry":{"type":"Point","coordinates":[103.84457614791424,1.3510481502541649]},"properties":{"OBJECTID":165,"NAME":"CLOVER CRESCENT PG","X":29252.840810770002,"Y":37017.558999989997}},{"type":"Feature","id":166,"geometry":{"type":"Point","coordinates":[103.8300516835762,1.3610744597440587]},"properties":{"OBJECTID":166,"NAME":"THE INGLEWOOD PG","X":27636.432814600001,"Y":38126.21454999}},{"type":"Feature","id":167,"geometry":{"type":"Point","coordinates":[103.86300718141766,1.3426814392416841]},"properties":{"OBJECTID":167,"NAME":"CARMICHAEL RD PG","X":31304.018949009998,"Y":36092.427999990003}},{"type":"Feature","id":168,"geometry":{"type":"Point","coordinates":[103.83498979568337,1.3500656010895002]},"properties":{"OBJECTID":168,"NAME":"TAMAN PERMATA PK","X":28185.987702229999,"Y":36908.910949990001}},{"type":"Feature","id":169,"geometry":{"type":"Point","coordinates":[103.85808296065588,1.3517560673798326]},"properties":{"OBJECTID":169,"NAME":"CHUAN LANE PARK","X":30755.996417170001,"Y":37095.847999990001}},{"type":"Feature","id":170,"geometry":{"type":"Point","coordinates":[103.89864411031115,1.376937578338443]},"properties":{"OBJECTID":170,"NAME":"PUNGGOL PK","X":35269.92065,"Y":39880.376707659998}},{"type":"Feature","id":171,"geometry":{"type":"Point","coordinates":[103.92150970647593,1.4094585525108143]},"properties":{"OBJECTID":171,"NAME":"CONEY ISLAND PARK","X":37814.444894699998,"Y":43476.467399989997}},{"type":"Feature","id":172,"geometry":{"type":"Point","coordinates":[103.87996253232025,1.3291384360598753]},"properties":{"OBJECTID":172,"NAME":"ALJUNIED PK","X":33190.994050000001,"Y":34594.940956459999}},{"type":"Feature","id":173,"geometry":{"type":"Point","coordinates":[103.88408561767399,1.35557644498448]},"properties":{"OBJECTID":173,"NAME":"SURIN AVE NEIGHBOURHOOD PK","X":33649.790574159997,"Y":37518.330999990001}},{"type":"Feature","id":174,"geometry":{"type":"Point","coordinates":[103.88505458283811,1.3461705316929746]},"properties":{"OBJECTID":174,"NAME":"TAI KENG GARDENS PG","X":33757.647458159998,"Y":36478.274999989997}},{"type":"Feature","id":175,"geometry":{"type":"Point","coordinates":[103.88356872978871,1.3489666098728343]},"properties":{"OBJECTID":175,"NAME":"PAYA LEBAR CRESCENT OS","X":33592.281949999997,"Y":36787.447705029997}},{"type":"Feature","id":176,"geometry":{"type":"Point","coordinates":[103.88324732394916,1.3438865600041416]},"properties":{"OBJECTID":176,"NAME":"THRIFT DR OS","X":33556.524550000002,"Y":36225.720810430001}},{"type":"Feature","id":177,"geometry":{"type":"Point","coordinates":[103.88595627294951,1.3551968667416656]},"properties":{"OBJECTID":177,"NAME":"AROOZOO AVE PG","X":33857.974056300001,"Y":37476.36359999}},{"type":"Feature","id":178,"geometry":{"type":"Point","coordinates":[103.88484078064656,1.3450413246205659]},"properties":{"OBJECTID":178,"NAME":"TAI KENG PLACE PG","X":33733.856255619998,"Y":36353.412499990001}},{"type":"Feature","id":179,"geometry":{"type":"Point","coordinates":[103.88182461306774,1.346782057161644]},"properties":{"OBJECTID":179,"NAME":"JLN KELICHAP PG","X":33398.186000000002,"Y":36545.886982010001}},{"type":"Feature","id":180,"geometry":{"type":"Point","coordinates":[103.87338201184058,1.3856016503500974]},"properties":{"OBJECTID":180,"NAME":"JLN SELASEH PG","X":32458.545999999998,"Y":40838.343861790003}},{"type":"Feature","id":181,"geometry":{"type":"Point","coordinates":[103.86114379728288,1.381151158087855]},"properties":{"OBJECTID":181,"NAME":"LILAC DR PG","X":31096.595381269999,"Y":40346.211499980003}},{"type":"Feature","id":182,"geometry":{"type":"Point","coordinates":[103.86304382230897,1.3841919506036497]},"properties":{"OBJECTID":182,"NAME":"MIMOSA RD PG","X":31308.040006030002,"Y":40682.449499989998}},{"type":"Feature","id":183,"geometry":{"type":"Point","coordinates":[103.8614600654721,1.3831048213251267]},"properties":{"OBJECTID":183,"NAME":"MIMOSA WALK PG","X":31131.789499999999,"Y":40562.238078499999}},{"type":"Feature","id":184,"geometry":{"type":"Point","coordinates":[103.87790631675026,1.3854458918398724]},"properties":{"OBJECTID":184,"NAME":"MUGLISTON PK PG","X":32962.043449999997,"Y":40821.129893370002}},{"type":"Feature","id":185,"geometry":{"type":"Point","coordinates":[103.86574410141814,1.3855886003480908]},"properties":{"OBJECTID":185,"NAME":"NERAM CRESCENT PG","X":31608.5445,"Y":40836.887934010003}},{"type":"Feature","id":186,"geometry":{"type":"Point","coordinates":[103.86020178045604,1.3896991865137867]},"properties":{"OBJECTID":186,"NAME":"TAMARIND RD PG","X":30991.750078919998,"Y":41291.408049990001}},{"type":"Feature","id":187,"geometry":{"type":"Point","coordinates":[103.86684092302163,1.3830798457367532]},"properties":{"OBJECTID":187,"NAME":"NIM CRESCENT OS","X":31730.610550000001,"Y":40559.484226799999}},{"type":"Feature","id":188,"geometry":{"type":"Point","coordinates":[103.8632895690186,1.387819699835976]},"properties":{"OBJECTID":188,"NAME":"BEGONIA RD PG","X":31335.383357039998,"Y":41083.587999980002}},{"type":"Feature","id":189,"geometry":{"type":"Point","coordinates":[103.89282189717285,1.3695631217362907]},"properties":{"OBJECTID":189,"NAME":"JLN NAUNG PG","X":34622.000650000002,"Y":39064.929382859998}},{"type":"Feature","id":190,"geometry":{"type":"Point","coordinates":[103.87750439954596,1.3660287545609888]},"properties":{"OBJECTID":190,"NAME":"PARRY RD PG","X":32917.355000000003,"Y":38674.08005805}},{"type":"Feature","id":191,"geometry":{"type":"Point","coordinates":[103.8586374762825,1.3866687658523218]},"properties":{"OBJECTID":191,"NAME":"SARACA RD PG","X":30817.666976590001,"Y":40956.31749999}},{"type":"Feature","id":192,"geometry":{"type":"Point","coordinates":[103.86841336325828,1.3877975742272126]},"properties":{"OBJECTID":192,"NAME":"DEDAP PLACE PG","X":31905.595499999999,"Y":41081.149311100002}},{"type":"Feature","id":193,"geometry":{"type":"Point","coordinates":[103.88161112353755,1.3669371159298906]},"properties":{"OBJECTID":193,"NAME":"POH HUAT RD PG","X":33374.3825,"Y":38774.53090464}},{"type":"Feature","id":194,"geometry":{"type":"Point","coordinates":[103.86696717182308,1.3792369849722972]},"properties":{"OBJECTID":194,"NAME":"STRATTON WALK PG","X":31744.666499999999,"Y":40134.560327109997}},{"type":"Feature","id":195,"geometry":{"type":"Point","coordinates":[103.86877440484598,1.3814827540287511]},"properties":{"OBJECTID":195,"NAME":"SELETAR TERRACE PG","X":31945.785233620001,"Y":40382.888999989998}},{"type":"Feature","id":196,"geometry":{"type":"Point","coordinates":[103.90373614980619,1.3916400676753395]},"properties":{"OBJECTID":196,"NAME":"ST ANNE'S WOOD PG","X":35836.553500000002,"Y":41506.120672060002}},{"type":"Feature","id":197,"geometry":{"type":"Point","coordinates":[103.87996361274367,1.368992827751172]},"properties":{"OBJECTID":197,"NAME":"PK VILLAS TERRACE PG","X":33191.029849480001,"Y":39001.837499989997}},{"type":"Feature","id":198,"geometry":{"type":"Point","coordinates":[103.86044968677317,1.3840503584654404]},"properties":{"OBJECTID":198,"NAME":"MIMOSA TERRACE PG","X":31019.345949999999,"Y":40666.789474079997}},{"type":"Feature","id":199,"geometry":{"type":"Point","coordinates":[103.87106539900101,1.3992663452473966]},"properties":{"OBJECTID":199,"NAME":"DEW GARDEN","X":32200.712500000001,"Y":42349.312736779997}},{"type":"Feature","id":200,"geometry":{"type":"Point","coordinates":[103.88113448732111,1.3639250471555793]},"properties":{"OBJECTID":200,"NAME":"PARRY AVE INTERIM PK","X":33321.345222249998,"Y":38441.470549990001}},{"type":"Feature","id":201,"geometry":{"type":"Point","coordinates":[103.8821291218715,1.3609285905492048]},"properties":{"OBJECTID":201,"NAME":"RICHARDS AVE PK","X":33432.042999999998,"Y":38110.139652379999}},{"type":"Feature","id":202,"geometry":{"type":"Point","coordinates":[103.87733653681293,1.3344335664826814]},"properties":{"OBJECTID":202,"NAME":"BUTTERFLY AVE PG","X":32898.737099999998,"Y":35180.444164760003}},{"type":"Feature","id":203,"geometry":{"type":"Point","coordinates":[103.87561556762392,1.3318740875843238]},"properties":{"OBJECTID":203,"NAME":"CHEMPAKA AVE PG","X":32707.216049999999,"Y":34897.426730309999}},{"type":"Feature","id":204,"geometry":{"type":"Point","coordinates":[103.88087476498011,1.35333766953297]},"properties":{"OBJECTID":204,"NAME":"JLN GENENG INTERIM PK","X":33292.46415,"Y":37270.77127148}},{"type":"Feature","id":205,"geometry":{"type":"Point","coordinates":[103.88432517223448,1.3994482127892529]},"properties":{"OBJECTID":205,"NAME":"SENGKANG RIVERSIDE PK","X":33676.3465,"Y":42369.450562739999}},{"type":"Feature","id":206,"geometry":{"type":"Point","coordinates":[103.87843597247893,1.3328961389324478]},"properties":{"OBJECTID":206,"NAME":"OASIS@MULBERRY PK","X":33021.095950000003,"Y":35010.445536959996}},{"type":"Feature","id":207,"geometry":{"type":"Point","coordinates":[103.87304948216776,1.3298283697306559]},"properties":{"OBJECTID":207,"NAME":"SIANG KUANG AVE INTERIM PK","X":32421.640950000001,"Y":34671.216944860003}},{"type":"Feature","id":208,"geometry":{"type":"Point","coordinates":[103.87375495285376,1.3989789258957948]},"properties":{"OBJECTID":208,"NAME":"LORONG TANGGAM PK","X":32500.02423658,"Y":42317.536299990003}},{"type":"Feature","id":209,"geometry":{"type":"Point","coordinates":[103.88246411823552,1.3435839278077555]},"properties":{"OBJECTID":209,"NAME":"UPPER PAYA LEBAR INTERIM PARK","X":33469.362950000002,"Y":36192.255466720002}},{"type":"Feature","id":210,"geometry":{"type":"Point","coordinates":[103.86340432365587,1.3786166192908991]},"properties":{"OBJECTID":210,"NAME":"NIM MEADOW PARK","X":31348.1669616,"Y":40065.958099989999}},{"type":"Feature","id":211,"geometry":{"type":"Point","coordinates":[103.87206082493839,1.3351785173598223]},"properties":{"OBJECTID":211,"NAME":"GREENWAY SOUTH","X":32311.604265360002,"Y":35262.807249990001}},{"type":"Feature","id":212,"geometry":{"type":"Point","coordinates":[103.87487871240788,1.397514524959929]},"properties":{"OBJECTID":212,"NAME":"FERNVALE PARK","X":32625.08642774,"Y":42155.612399990001}},{"type":"Feature","id":213,"geometry":{"type":"Point","coordinates":[103.83684542660218,1.4615029671010009]},"properties":{"OBJECTID":213,"NAME":"SEMBAWANG PK","X":28392.480049999998,"Y":49231.091700550001}},{"type":"Feature","id":214,"geometry":{"type":"Point","coordinates":[103.84260969126039,1.4243757202836804]},"properties":{"OBJECTID":214,"NAME":"YISHUN PK","X":29033.964449999999,"Y":45125.748917270001}},{"type":"Feature","id":215,"geometry":{"type":"Point","coordinates":[103.82889324908156,1.4074398977574718]},"properties":{"OBJECTID":215,"NAME":"LOWER SELETAR RESERVOIR PARK","X":27507.522233979998,"Y":43253.069549990003}},{"type":"Feature","id":216,"geometry":{"type":"Point","coordinates":[103.83838324853672,1.3886309570460751]},"properties":{"OBJECTID":216,"NAME":"LENTOR WALK PG","X":28563.631949999999,"Y":41173.272245990003}},{"type":"Feature","id":217,"geometry":{"type":"Point","coordinates":[103.83840795464988,1.390187591950226]},"properties":{"OBJECTID":217,"NAME":"COUNTRYSIDE PG","X":28566.38108947,"Y":41345.39699999}},{"type":"Feature","id":218,"geometry":{"type":"Point","coordinates":[103.83427652569794,1.3900981863835726]},"properties":{"OBJECTID":218,"NAME":"LENTOR STREET PG","X":28106.607,"Y":41335.510405289999}},{"type":"Feature","id":219,"geometry":{"type":"Point","coordinates":[103.83507298158987,1.3869730932271511]},"properties":{"OBJECTID":219,"NAME":"FLORISSA PK PG","X":28195.242364469999,"Y":40989.953549990001}},{"type":"Feature","id":220,"geometry":{"type":"Point","coordinates":[103.83723438334813,1.3898351218920812]},"properties":{"OBJECTID":220,"NAME":"FUDU WALK PG","X":28435.777999999998,"Y":41306.422381069999}},{"type":"Feature","id":221,"geometry":{"type":"Point","coordinates":[103.83705647129632,1.3852857282719149]},"properties":{"OBJECTID":221,"NAME":"LENTOR GREEN PG","X":28415.979500000001,"Y":40803.373479139998}},{"type":"Feature","id":222,"geometry":{"type":"Point","coordinates":[103.83837072390618,1.3863846910693212]},"properties":{"OBJECTID":222,"NAME":"LENTOR GROVE PG","X":28562.238705470001,"Y":40924.891549990003}},{"type":"Feature","id":223,"geometry":{"type":"Point","coordinates":[103.83757220094721,1.3882919034888321]},"properties":{"OBJECTID":223,"NAME":"LENTOR RD PG","X":28473.373,"Y":41135.78124158}},{"type":"Feature","id":224,"geometry":{"type":"Point","coordinates":[103.83614608213691,1.3880542360180279]},"properties":{"OBJECTID":224,"NAME":"LENTOR VALE PG","X":28314.664499999999,"Y":41109.500908030001}},{"type":"Feature","id":225,"geometry":{"type":"Point","coordinates":[103.83885324901108,1.3872785047323783]},"properties":{"OBJECTID":225,"NAME":"BANYAN VILLAS PG","X":28615.937333649999,"Y":41023.725049989996}},{"type":"Feature","id":226,"geometry":{"type":"Point","coordinates":[103.83505796157499,1.4377572398692902]},"properties":{"OBJECTID":226,"NAME":"YISHUN NEIGHBOURHOOD PK","X":28193.5666724,"Y":46605.407999980001}},{"type":"Feature","id":227,"geometry":{"type":"Point","coordinates":[103.82611872435531,1.427545345731652]},"properties":{"OBJECTID":227,"NAME":"PLATINA RD PG","X":27198.762999999999,"Y":45476.229250310003}},{"type":"Feature","id":228,"geometry":{"type":"Point","coordinates":[103.82539258443619,1.4272996068699648]},"properties":{"OBJECTID":228,"NAME":"GOODLINK PK PG","X":27117.954254799999,"Y":45449.057049980001}},{"type":"Feature","id":229,"geometry":{"type":"Point","coordinates":[103.82232177612995,1.3980392651067637]},"properties":{"OBJECTID":229,"NAME":"SPRINGLEAF GARDEN PG","X":26776.2035,"Y":42213.59752001}},{"type":"Feature","id":230,"geometry":{"type":"Point","coordinates":[103.81838893422373,1.4000547089156712]},"properties":{"OBJECTID":230,"NAME":"THONG SOON GREEN PG","X":26338.532375729999,"Y":42436.457499980002}},{"type":"Feature","id":231,"geometry":{"type":"Point","coordinates":[103.82259766879525,1.4009038349808505]},"properties":{"OBJECTID":231,"NAME":"SPRINGLEAF AVE PG","X":26806.90808103,"Y":42530.346999989997}},{"type":"Feature","id":232,"geometry":{"type":"Point","coordinates":[103.83564474294631,1.4561915535787118]},"properties":{"OBJECTID":232,"NAME":"KANDIS GARDEN","X":28258.86443184,"Y":48643.781999979998}},{"type":"Feature","id":233,"geometry":{"type":"Point","coordinates":[103.836983849514,1.4575398277036695]},"properties":{"OBJECTID":233,"NAME":"JANGGUS GARDEN","X":28407.884999999998,"Y":48792.867623470003}},{"type":"Feature","id":234,"geometry":{"type":"Point","coordinates":[103.82949312449735,1.4506449229179543]},"properties":{"OBJECTID":234,"NAME":"PEBBLE GARDEN","X":27574.28801996,"Y":48030.463599989998}},{"type":"Feature","id":235,"geometry":{"type":"Point","coordinates":[103.82060743654343,1.4056718996977899]},"properties":{"OBJECTID":235,"NAME":"SPRINGSIDE PK","X":26585.425050000002,"Y":43057.576566169999}},{"type":"Feature","id":236,"geometry":{"type":"Point","coordinates":[103.83948703941307,1.4280122121941303]},"properties":{"OBJECTID":236,"NAME":"YISHUN POND PK","X":28686.458050000001,"Y":45527.85272381}},{"type":"Feature","id":237,"geometry":{"type":"Point","coordinates":[103.76993442393145,1.4376329309110691]},"properties":{"OBJECTID":237,"NAME":"MARSILING PARK","X":20946.312849999998,"Y":46591.760366839997}},{"type":"Feature","id":238,"geometry":{"type":"Point","coordinates":[103.74719419176785,1.3868788943203836]},"properties":{"OBJECTID":238,"NAME":"CHOA CHU KANG PK","X":18415.463169890001,"Y":40979.71179999}},{"type":"Feature","id":239,"geometry":{"type":"Point","coordinates":[103.77932336433604,1.4366664600205694]},"properties":{"OBJECTID":239,"NAME":"WOODLANDS TOWN PK EAST","X":21991.15617007,"Y":46484.86599998}},{"type":"Feature","id":240,"geometry":{"type":"Point","coordinates":[103.76466780670853,1.3705998190999771]},"properties":{"OBJECTID":240,"NAME":"CASHEW RD PG","X":20360.001,"Y":39179.58947282}},{"type":"Feature","id":241,"geometry":{"type":"Point","coordinates":[103.76882971645354,1.3676337346860437]},"properties":{"OBJECTID":241,"NAME":"CHESTNUT DR PG","X":20823.162499999999,"Y":38851.601933639999}},{"type":"Feature","id":242,"geometry":{"type":"Point","coordinates":[103.76892501358682,1.3713588873705078]},"properties":{"OBJECTID":242,"NAME":"CASHEW LINK PG","X":20833.778999999999,"Y":39263.510346399999}},{"type":"Feature","id":243,"geometry":{"type":"Point","coordinates":[103.75903191338021,1.4165006473670392]},"properties":{"OBJECTID":243,"NAME":"JLN RASOK PK","X":19732.954134269999,"Y":44255.093499989998}},{"type":"Feature","id":244,"geometry":{"type":"Point","coordinates":[103.77198060528261,1.373212444460707]},"properties":{"OBJECTID":244,"NAME":"ALMOND CRESCENT PG","X":21173.83463682,"Y":39468.458449990001}},{"type":"Feature","id":245,"geometry":{"type":"Point","coordinates":[103.76364488514353,1.3716346047099901]},"properties":{"OBJECTID":245,"NAME":"HAZEL PK OS","X":20246.165499999999,"Y":39294.014207089996}},{"type":"Feature","id":246,"geometry":{"type":"Point","coordinates":[103.75295144222655,1.3904215007174316]},"properties":{"OBJECTID":246,"NAME":"VILLA VERDE PK","X":19056.184888039999,"Y":41371.413099990001}},{"type":"Feature","id":247,"geometry":{"type":"Point","coordinates":[103.78004641287625,1.4503318491150956]},"properties":{"OBJECTID":247,"NAME":"ADMIRALTY PK","X":22071.655900000002,"Y":47995.9148642}},{"type":"Feature","id":248,"geometry":{"type":"Point","coordinates":[103.76949467203684,1.372244853589548]},"properties":{"OBJECTID":248,"NAME":"CASHEW CRESCENT FC PG","X":20897.1777,"Y":39361.474340870001}},{"type":"Feature","id":249,"geometry":{"type":"Point","coordinates":[103.85025257913112,1.2834502283705302]},"properties":{"OBJECTID":249,"NAME":"MARKET STREET PARK","X":29884.614450000001,"Y":29542.931412649999}},{"type":"Feature","id":250,"geometry":{"type":"Point","coordinates":[103.86927945315952,1.4091868197905]},"properties":{"OBJECTID":250,"NAME":"HAMPSTEAD WETLANDS PARK","X":32001.943899999998,"Y":43446.265661730002}},{"type":"Feature","id":251,"geometry":{"type":"Point","coordinates":[103.86063943635142,1.2890334954405513]},"properties":{"OBJECTID":251,"NAME":"YOUTH OLYMPIC PK","X":31040.579450000001,"Y":30160.310349759999}},{"type":"Feature","id":252,"geometry":{"type":"Point","coordinates":[103.88170606628692,1.3337984538293288]},"properties":{"OBJECTID":252,"NAME":"MACPHERSON LINEAR PK","X":33385.021399999998,"Y":35110.225840140003}},{"type":"Feature","id":253,"geometry":{"type":"Point","coordinates":[103.79640044992216,1.3220260236043055]},"properties":{"OBJECTID":253,"NAME":"CORONATION PARK","X":23891.378949999998,"Y":33808.468496100002}},{"type":"Feature","id":254,"geometry":{"type":"Point","coordinates":[103.79554394732374,1.3117302451456774]},"properties":{"OBJECTID":254,"NAME":"HOLLAND VILLAGE PK","X":23796.041499999999,"Y":32670.015428710001}},{"type":"Feature","id":255,"geometry":{"type":"Point","coordinates":[103.88429612227287,1.3404755199680845]},"properties":{"OBJECTID":255,"NAME":"BUNGA RAMPAI PK","X":33673.252316179998,"Y":35848.547699989998}},{"type":"Feature","id":256,"geometry":{"type":"Point","coordinates":[103.83403585965391,1.3565655208983551]},"properties":{"OBJECTID":256,"NAME":"JALAN SEMBILANG PARK","X":28079.82506843,"Y":37627.638799990003}},{"type":"Feature","id":257,"geometry":{"type":"Point","coordinates":[103.87432584718341,1.3406917048981004]},"properties":{"OBJECTID":257,"NAME":"BIDADARI PK","X":32563.66726097,"Y":35872.431499990002}},{"type":"Feature","id":258,"geometry":{"type":"Point","coordinates":[103.8648876663764,1.3262280949094876]},"properties":{"OBJECTID":258,"NAME":"ST MICHAEL'S PG","X":31513.31982067,"Y":34273.103849990002}},{"type":"Feature","id":259,"geometry":{"type":"Point","coordinates":[103.86510904659654,1.326495585887167]},"properties":{"OBJECTID":259,"NAME":"ST MICHAEL'S FC","X":31537.956750000001,"Y":34302.681879160002}},{"type":"Feature","id":260,"geometry":{"type":"Point","coordinates":[103.8468378224805,1.3136609018175494]},"properties":{"OBJECTID":260,"NAME":"CAMBRIDGE PARK","X":29504.562450000001,"Y":32883.469817739999}},{"type":"Feature","id":261,"geometry":{"type":"Point","coordinates":[103.81920708492935,1.3304435596940567]},"properties":{"OBJECTID":261,"NAME":"KHEAM HOCK PARK","X":26429.536266840001,"Y":34739.210449990002}},{"type":"Feature","id":262,"geometry":{"type":"Point","coordinates":[103.89959814941292,1.309780416441062]},"properties":{"OBJECTID":262,"NAME":"CEYLON ROAD INTERIM PARK","X":35376.294776260002,"Y":32454.479149989998}},{"type":"Feature","id":263,"geometry":{"type":"Point","coordinates":[103.89867693205032,1.3106817056633298]},"properties":{"OBJECTID":263,"NAME":"HAIG WALK EXTENSION","X":35273.7693,"Y":32554.13643052}},{"type":"Feature","id":264,"geometry":{"type":"Point","coordinates":[103.90071942071468,1.3100970657235249]},"properties":{"OBJECTID":264,"NAME":"ONAN ROAD GREEN SPACE","X":35501.080924169997,"Y":32489.49594999}},{"type":"Feature","id":265,"geometry":{"type":"Point","coordinates":[103.84379019866222,1.2764576104339909]},"properties":{"OBJECTID":265,"NAME":"TRAS LINK PK","X":29165.408032150001,"Y":28769.71999999}},{"type":"Feature","id":266,"geometry":{"type":"Point","coordinates":[103.82726623397681,1.3586716314676621]},"properties":{"OBJECTID":266,"NAME":"VENUS GREEN","X":27326.44419925,"Y":37860.522649990002}},{"type":"Feature","id":267,"geometry":{"type":"Point","coordinates":[103.89248426858595,1.310798045128343]},"properties":{"OBJECTID":267,"NAME":"GREEN LANE PARK","X":34584.583590280003,"Y":32566.983499990001}},{"type":"Feature","id":268,"geometry":{"type":"Point","coordinates":[103.86202838719863,1.3273571946342186]},"properties":{"OBJECTID":268,"NAME":"MAR THOMA ROAD PARK","X":31195.109499999999,"Y":34397.950024160004}},{"type":"Feature","id":269,"geometry":{"type":"Point","coordinates":[103.78618858002517,1.3385935688953421]},"properties":{"OBJECTID":269,"NAME":"SIAN TUAN INTERIM PARK","X":22754.934066419999,"Y":35640.442599989998}},{"type":"Feature","id":270,"geometry":{"type":"Point","coordinates":[103.87869663058362,1.3477598168274654]},"properties":{"OBJECTID":270,"NAME":"LORONG ONG LYE PARK","X":33050.074011359997,"Y":36653.995999990002}},{"type":"Feature","id":271,"geometry":{"type":"Point","coordinates":[103.90283322069531,1.3110448661605869]},"properties":{"OBJECTID":271,"NAME":"KOON SENG PARK","X":35736.32415,"Y":32594.305332399999}},{"type":"Feature","id":272,"geometry":{"type":"Point","coordinates":[103.87813597290207,1.3458918268781661]},"properties":{"OBJECTID":272,"NAME":"HOW SUN LINEAR PARK","X":32987.682849999997,"Y":36447.442021540002}},{"type":"Feature","id":273,"geometry":{"type":"Point","coordinates":[103.94837674998735,1.3637104850934065]},"properties":{"OBJECTID":273,"NAME":"TAMPINES ECO GREEN PK","X":40804.622226430001,"Y":38417.998449990002}},{"type":"Feature","id":274,"geometry":{"type":"Point","coordinates":[103.91473692531704,1.3273640908170361]},"properties":{"OBJECTID":274,"NAME":"LENGKONG ENAM PARK","X":37061.036050000002,"Y":34398.843077559999}},{"type":"Feature","id":275,"geometry":{"type":"Point","coordinates":[103.91718424983641,1.3255723945320617]},"properties":{"OBJECTID":275,"NAME":"JALAN SENANG LINEAR PARK","X":37333.405350000001,"Y":34200.735378830002}},{"type":"Feature","id":276,"geometry":{"type":"Point","coordinates":[103.93135824060478,1.3158268685002996]},"properties":{"OBJECTID":276,"NAME":"TANAH PUTEH PK","X":38910.871877040001,"Y":33123.181499990002}},{"type":"Feature","id":277,"geometry":{"type":"Point","coordinates":[103.91280540959376,1.3103250756376554]},"properties":{"OBJECTID":277,"NAME":"TELOK KURAU LORONG N PK","X":36846.137999999999,"Y":32514.747493070001}},{"type":"Feature","id":278,"geometry":{"type":"Point","coordinates":[103.90710085142925,1.3258268500339527]},"properties":{"OBJECTID":278,"NAME":"JLN DAUD PK","X":36211.223050000001,"Y":34228.836089229997}},{"type":"Feature","id":279,"geometry":{"type":"Point","coordinates":[103.90653362722021,1.3255910007377705]},"properties":{"OBJECTID":279,"NAME":"JLN DAUD INTERIM PK","X":36148.097470829998,"Y":34202.755199990002}},{"type":"Feature","id":280,"geometry":{"type":"Point","coordinates":[103.90600138050888,1.3249340929151467]},"properties":{"OBJECTID":280,"NAME":"JLN EUNOS INTERIM PK","X":36088.865899999997,"Y":34130.115912330002}},{"type":"Feature","id":281,"geometry":{"type":"Point","coordinates":[103.90586782493945,1.3238827295096061]},"properties":{"OBJECTID":281,"NAME":"JLN AWANG INTERIM PK","X":36074.005854069997,"Y":34013.86099999}},{"type":"Feature","id":282,"geometry":{"type":"Point","coordinates":[103.90555486606854,1.3213610329678636]},"properties":{"OBJECTID":282,"NAME":"JLN YASIN INTERIM PK","X":36039.18475,"Y":33735.02348905}},{"type":"Feature","id":283,"geometry":{"type":"Point","coordinates":[103.93596368818606,1.317581114211267]},"properties":{"OBJECTID":283,"NAME":"SENNETT AVE LINEAR PK","X":39423.406499999997,"Y":33317.177945459996}},{"type":"Feature","id":284,"geometry":{"type":"Point","coordinates":[103.90719783457328,1.3241437952219179]},"properties":{"OBJECTID":284,"NAME":"JALAN ISHAK PARK","X":36222.0219,"Y":34042.732691680001}},{"type":"Feature","id":285,"geometry":{"type":"Point","coordinates":[103.90793148364665,1.3238874167098094]},"properties":{"OBJECTID":285,"NAME":"LORONG MARICAN PARK","X":36303.670585810003,"Y":34014.386149990001}},{"type":"Feature","id":286,"geometry":{"type":"Point","coordinates":[103.90833923340004,1.3237972700036256]},"properties":{"OBJECTID":286,"NAME":"LORONG MARZUKI PARK","X":36349.049378650001,"Y":34004.419499989999}},{"type":"Feature","id":287,"geometry":{"type":"Point","coordinates":[103.90932502642963,1.3239981939644312]},"properties":{"OBJECTID":287,"NAME":"LORONG MELAYU PARK","X":36458.7577065,"Y":34026.639999990002}},{"type":"Feature","id":288,"geometry":{"type":"Point","coordinates":[103.9069388354374,1.3309719001814444]},"properties":{"OBJECTID":288,"NAME":"JALAN SINGA PARK","X":36193.175400100001,"Y":34797.749299989999}},{"type":"Feature","id":289,"geometry":{"type":"Point","coordinates":[103.95218941847628,1.3386583856793284]},"properties":{"OBJECTID":289,"NAME":"SEA BREEZE AVENUE PARK","X":41229.063450000001,"Y":35647.879820230002}},{"type":"Feature","id":290,"geometry":{"type":"Point","coordinates":[103.95042164618069,1.3378659285546979]},"properties":{"OBJECTID":290,"NAME":"SEA BREEZE GARDEN PARK","X":41032.333050000001,"Y":35560.244333800001}},{"type":"Feature","id":291,"geometry":{"type":"Point","coordinates":[103.87288129000338,1.3981028673361924]},"properties":{"OBJECTID":291,"NAME":"JLN KAYU PK","X":32402.798900000002,"Y":42220.664512080002}},{"type":"Feature","id":292,"geometry":{"type":"Point","coordinates":[103.90481505251175,1.4109972133070596]},"properties":{"OBJECTID":292,"NAME":"PUNGGOL WATERWAY PK","X":35956.555999999997,"Y":43646.541220730003}},{"type":"Feature","id":293,"geometry":{"type":"Point","coordinates":[103.86200639142878,1.3485590553796722]},"properties":{"OBJECTID":293,"NAME":"CHILTERN DRIVE INTERIM PARK","X":31192.634150000002,"Y":36742.343511699997}},{"type":"Feature","id":294,"geometry":{"type":"Point","coordinates":[103.87500619211161,1.3794966735254204]},"properties":{"OBJECTID":294,"NAME":"LUXUS HILLS PARK","X":32639.308329889998,"Y":40163.289499990002}},{"type":"Feature","id":295,"geometry":{"type":"Point","coordinates":[103.86674253718547,1.3564831011967846]},"properties":{"OBJECTID":295,"NAME":"COLCHESTER GROVE INTERIM OS","X":31719.702499999999,"Y":37618.550893469997}},{"type":"Feature","id":296,"geometry":{"type":"Point","coordinates":[103.87176018975933,1.37933423418482]},"properties":{"OBJECTID":296,"NAME":"ANG MO KIO LINEAR PK (PLOT 2)","X":32278.069188680001,"Y":40145.321699979999}},{"type":"Feature","id":297,"geometry":{"type":"Point","coordinates":[103.86871835024394,1.3791914029869319]},"properties":{"OBJECTID":297,"NAME":"ANG MO KIO LINEAR PK (PLOT 3)","X":31939.550807830001,"Y":40129.522949990002}},{"type":"Feature","id":298,"geometry":{"type":"Point","coordinates":[103.87253565687772,1.3987879613464556]},"properties":{"OBJECTID":298,"NAME":"JLN KAYU INTERIM PK","X":32364.33325,"Y":42296.41811536}},{"type":"Feature","id":299,"geometry":{"type":"Point","coordinates":[103.89011876921555,1.3682274567821835]},"properties":{"OBJECTID":299,"NAME":"REALTY PARK","X":34321.178641600003,"Y":38917.230999990003}},{"type":"Feature","id":300,"geometry":{"type":"Point","coordinates":[103.88858043913332,1.3328488352836065]},"properties":{"OBJECTID":300,"NAME":"PAYA LEBAR ROAD PARK","X":34150.069750000002,"Y":35005.237939649996}},{"type":"Feature","id":301,"geometry":{"type":"Point","coordinates":[103.78131812725178,1.4533560651448352]},"properties":{"OBJECTID":301,"NAME":"WOODLANDS WATERFRONT PK","X":22213.18522214,"Y":48330.314449979996}},{"type":"Feature","id":302,"geometry":{"type":"Point","coordinates":[103.82708060222011,1.4393255722864347]},"properties":{"OBJECTID":302,"NAME":"KEMUNING PK","X":27305.809297110001,"Y":46778.827199990003}},{"type":"Feature","id":303,"geometry":{"type":"Point","coordinates":[103.82207014723265,1.4411560592577497]},"properties":{"OBJECTID":303,"NAME":"LEGUNDI PK","X":26748.2238,"Y":46981.235412770002}},{"type":"Feature","id":304,"geometry":{"type":"Point","coordinates":[103.82297934779446,1.4056081881963591]},"properties":{"OBJECTID":304,"NAME":"BROOK'S PARK","X":26849.386090330001,"Y":43050.530449979997}},{"type":"Feature","id":305,"geometry":{"type":"Point","coordinates":[103.86001282197255,1.3644696649356991]},"properties":{"OBJECTID":305,"NAME":"HAUS LINEAR PARK","X":30970.752700000001,"Y":38501.655186939999}},{"type":"Feature","id":306,"geometry":{"type":"Point","coordinates":[103.82264581250642,1.4343322631927482]},"properties":{"OBJECTID":306,"NAME":"SEMBAWANG HOT SPRING PARK","X":26812.282850259999,"Y":46226.694049979997}},{"type":"Feature","id":307,"geometry":{"type":"Point","coordinates":[103.84006882882944,1.4619435384979851]},"properties":{"OBJECTID":307,"NAME":"IRAU DRIVE PLAYGROUND","X":28751.19152239,"Y":49279.808749980002}},{"type":"Feature","id":308,"geometry":{"type":"Point","coordinates":[103.87522575970935,1.3516374385511811]},"properties":{"OBJECTID":308,"NAME":"UPPER SERANGOON PARK","X":32663.79710883,"Y":37082.756799989998}},{"type":"Feature","id":309,"geometry":{"type":"Point","coordinates":[103.76093338574456,1.3603930473435468]},"properties":{"OBJECTID":309,"NAME":"LORONG KEMUNCHUP PLAYGROUND","X":19944.37102174,"Y":38050.988049990003}},{"type":"Feature","id":310,"geometry":{"type":"Point","coordinates":[103.76077601489401,1.3575783238033021]},"properties":{"OBJECTID":310,"NAME":"JALAN REMAJA INTERIM PARK","X":19926.848050000001,"Y":37739.750458230003}},{"type":"Feature","id":311,"geometry":{"type":"Point","coordinates":[103.7687509521143,1.3574541615680369]},"properties":{"OBJECTID":311,"NAME":"FUYONG INTERIM PK","X":20814.366763139999,"Y":37725.996099989999}},{"type":"Feature","id":312,"geometry":{"type":"Point","coordinates":[103.77330070532609,1.3689466349411357]},"properties":{"OBJECTID":312,"NAME":"CHESTNUT CLOSE PARK","X":21320.73377671,"Y":38996.762949989999}},{"type":"Feature","id":313,"geometry":{"type":"Point","coordinates":[103.75343447476291,1.3683404220725546]},"properties":{"OBJECTID":313,"NAME":"PAVILION PLAYGROUND II","X":19109.858225489999,"Y":38929.795449990001}},{"type":"Feature","id":314,"geometry":{"type":"Point","coordinates":[103.76796711460399,1.3724045480241602]},"properties":{"OBJECTID":314,"NAME":"CASHEW RD INTERIM PK","X":20727.179565480001,"Y":39379.137149989998}},{"type":"Feature","id":315,"geometry":{"type":"Point","coordinates":[103.75526367638578,1.3238384183511829]},"properties":{"OBJECTID":315,"NAME":"FABER HEIGHTS PARK","X":19313.26902851,"Y":34008.979999989999}},{"type":"Feature","id":316,"geometry":{"type":"Point","coordinates":[103.73200024650436,1.341095115528266]},"properties":{"OBJECTID":316,"NAME":"JLG: CG MRT TOL LINKWAY","X":16724.3577,"Y":35917.233848709999}},{"type":"Feature","id":317,"geometry":{"type":"Point","coordinates":[103.81562486238036,1.3100244521730628]},"properties":{"OBJECTID":317,"NAME":"SBG LC ZONE 1 (TNC)","X":26030.855800000001,"Y":32481.372828830001}},{"type":"Feature","id":318,"geometry":{"type":"Point","coordinates":[103.8169579771443,1.3210034671809083]},"properties":{"OBJECTID":318,"NAME":"SBG LC ZONE 2 (CC/BTC)","X":26179.226900000001,"Y":33695.374921770002}},{"type":"Feature","id":319,"geometry":{"type":"Point","coordinates":[103.8140609121386,1.3129062754466734]},"properties":{"OBJECTID":319,"NAME":"SBG LC ZONE 3 (NOG/PV)","X":25856.8053,"Y":32800.031303030002}},{"type":"Feature","id":320,"geometry":{"type":"Point","coordinates":[103.81789598168726,1.3218387235806648]},"properties":{"OBJECTID":320,"NAME":"SBG LC ARBO/PRC/PRU ","X":26283.61811997,"Y":33787.732649990001}},{"type":"Feature","id":321,"geometry":{"type":"Point","coordinates":[103.846609328737,1.2958907354261311]},"properties":{"OBJECTID":321,"NAME":"FORT CANNING PARK","X":29479.143599999999,"Y":30918.536136279999}},{"type":"Feature","id":322,"geometry":{"type":"Point","coordinates":[103.8456906573111,1.2922576144953883]},"properties":{"OBJECTID":322,"NAME":"THE FOOTHILLS FORT CANNING PK","X":29376.905449999998,"Y":30516.803832729998}},{"type":"Feature","id":323,"geometry":{"type":"Point","coordinates":[103.84867152086326,1.2956865226548384]},"properties":{"OBJECTID":323,"NAME":"FARQUHAR GARDEN (FCP)","X":29708.64757728,"Y":30895.956649989999}},{"type":"Feature","id":324,"geometry":{"type":"Point","coordinates":[103.85213965205668,1.2869615844084001]},"properties":{"OBJECTID":324,"NAME":"EMPRESS PLACE","X":30094.627301699998,"Y":29931.200549990001}},{"type":"Feature","id":325,"geometry":{"type":"Point","coordinates":[103.85359672385975,1.289417085574277]},"properties":{"OBJECTID":325,"NAME":"ESPLANADE PK","X":30256.785049999999,"Y":30202.718355000001}},{"type":"Feature","id":326,"geometry":{"type":"Point","coordinates":[103.84141929284567,1.2811223325176546]},"properties":{"OBJECTID":326,"NAME":"DUXTON PLAIN PK","X":28901.543399999999,"Y":29285.51987394}},{"type":"Feature","id":327,"geometry":{"type":"Point","coordinates":[103.83872911197332,1.2845131482934613]},"properties":{"OBJECTID":327,"NAME":"PEARL'S HILL CITY PK","X":28602.147373899999,"Y":29660.457999990002}},{"type":"Feature","id":328,"geometry":{"type":"Point","coordinates":[103.85149992681541,1.2835942597630638]},"properties":{"OBJECTID":328,"NAME":"RAFFLES PLACE PK","X":30023.4339,"Y":29558.858586689999}},{"type":"Feature","id":329,"geometry":{"type":"Point","coordinates":[103.84668683482796,1.2781775055205808]},"properties":{"OBJECTID":329,"NAME":"TELOK AYER PK","X":29487.779600000002,"Y":28959.898598259999}},{"type":"Feature","id":330,"geometry":{"type":"Point","coordinates":[103.85347304115898,1.2873195163410733]},"properties":{"OBJECTID":330,"NAME":"WATERBOAT HOUSE GARDEN","X":30243.021949999998,"Y":29970.779904319999}},{"type":"Feature","id":331,"geometry":{"type":"Point","coordinates":[103.84577413154086,1.2765778585703167]},"properties":{"OBJECTID":331,"NAME":"TANJONG PAGAR PK","X":29386.203934829999,"Y":28783.01739999}},{"type":"Feature","id":332,"geometry":{"type":"Point","coordinates":[103.84764373601121,1.2814651634440863]},"properties":{"OBJECTID":332,"NAME":"TELOK AYER GREEN","X":29594.273000000001,"Y":29323.431352269999}},{"type":"Feature","id":333,"geometry":{"type":"Point","coordinates":[103.84611877493366,1.2810620002557065]},"properties":{"OBJECTID":333,"NAME":"ANN SIANG HILL PK","X":29424.557499999999,"Y":29278.850841949999}},{"type":"Feature","id":334,"geometry":{"type":"Point","coordinates":[103.84705068432152,1.2863319638689366]},"properties":{"OBJECTID":334,"NAME":"HONG LIM PK","X":29528.26828891,"Y":29861.576749989999}},{"type":"Feature","id":335,"geometry":{"type":"Point","coordinates":[103.84795477931803,1.3305698250739586]},"properties":{"OBJECTID":335,"NAME":"TOA PAYOH TOWN PK","X":29628.858008480001,"Y":34753.172549989999}},{"type":"Feature","id":336,"geometry":{"type":"Point","coordinates":[103.86882040608397,1.3077192983528685]},"properties":{"OBJECTID":336,"NAME":"KALLANG RIVERSIDE PK","X":31951.023063979999,"Y":32226.501749989999}},{"type":"Feature","id":337,"geometry":{"type":"Point","coordinates":[103.82402678837296,1.2876172817355604]},"properties":{"OBJECTID":337,"NAME":"TIONG BAHRU PK","X":26965.901999999998,"Y":30003.698253660001}},{"type":"Feature","id":338,"geometry":{"type":"Point","coordinates":[103.84370946452388,1.3162599542348774]},"properties":{"OBJECTID":338,"NAME":"THOMSON RD PG","X":29156.404945819999,"Y":33170.858049989998}},{"type":"Feature","id":339,"geometry":{"type":"Point","coordinates":[103.82651847332639,1.3225629270112642]},"properties":{"OBJECTID":339,"NAME":"MALCOLM PK","X":27243.216032240001,"Y":33867.806999990004}},{"type":"Feature","id":340,"geometry":{"type":"Point","coordinates":[103.86299607104655,1.3024454354320096]},"properties":{"OBJECTID":340,"NAME":"KAMPONG GLAM PK","X":31302.83555,"Y":31643.336614749998}},{"type":"Feature","id":341,"geometry":{"type":"Point","coordinates":[103.84320423199813,1.3123989150672273]},"properties":{"OBJECTID":341,"NAME":"HOOPER RD PG","X":29100.17915,"Y":32743.923859539998}},{"type":"Feature","id":342,"geometry":{"type":"Point","coordinates":[103.85484861991678,1.3084223021898134]},"properties":{"OBJECTID":342,"NAME":"ROWELL RD OS","X":30396.092499999999,"Y":32304.21859765}},{"type":"Feature","id":343,"geometry":{"type":"Point","coordinates":[103.85815199975507,1.3114841047156247]},"properties":{"OBJECTID":343,"NAME":"SOMME RD PG","X":30763.7245,"Y":32642.78042983}},{"type":"Feature","id":344,"geometry":{"type":"Point","coordinates":[103.86583529863027,1.3238060154419715]},"properties":{"OBJECTID":344,"NAME":"BENG WAN RD PG","X":31618.78515,"Y":34005.283954630002}},{"type":"Feature","id":345,"geometry":{"type":"Point","coordinates":[103.86214555169653,1.3041093226010843]},"properties":{"OBJECTID":345,"NAME":"NORTH BRIDGE GARDEN","X":31208.178349999998,"Y":31827.319605389999}},{"type":"Feature","id":346,"geometry":{"type":"Point","coordinates":[103.83317379982168,1.3211334171756735]},"properties":{"OBJECTID":346,"NAME":"GOLDHILL AVE PG","X":27983.887500000001,"Y":33709.738128650002}},{"type":"Feature","id":347,"geometry":{"type":"Point","coordinates":[103.84070309190496,1.3203688056669944]},"properties":{"OBJECTID":347,"NAME":"GENTLE DR PG","X":28821.823432450001,"Y":33625.19249999}},{"type":"Feature","id":348,"geometry":{"type":"Point","coordinates":[103.84281346247634,1.3223128035080336]},"properties":{"OBJECTID":348,"NAME":"NOVENA PK","X":29056.686000000002,"Y":33840.150605690003}},{"type":"Feature","id":349,"geometry":{"type":"Point","coordinates":[103.84761124346433,1.3043760852680015]},"properties":{"OBJECTID":349,"NAME":"MOUNT EMILY PK","X":29590.642616360001,"Y":31856.803049990001}},{"type":"Feature","id":350,"geometry":{"type":"Point","coordinates":[103.8414938192375,1.3002353872402603]},"properties":{"OBJECTID":350,"NAME":"PENANG RD OS","X":28909.830833799999,"Y":31398.942899990001}},{"type":"Feature","id":351,"geometry":{"type":"Point","coordinates":[103.84484592748184,1.293374207908301]},"properties":{"OBJECTID":351,"NAME":"JUBILEE PARK (FCP)","X":29282.893800000002,"Y":30640.270502200001}},{"type":"Feature","id":352,"geometry":{"type":"Point","coordinates":[103.83761070678618,1.3015871256010152]},"properties":{"OBJECTID":352,"NAME":"ORCHARD FOUNTAIN CORNER","X":28477.674999999999,"Y":31548.410052070001}},{"type":"Feature","id":353,"geometry":{"type":"Point","coordinates":[103.8439884144354,1.2992640005702025]},"properties":{"OBJECTID":353,"NAME":"ISTANA PK","X":29187.457347650001,"Y":31291.532999989999}},{"type":"Feature","id":354,"geometry":{"type":"Point","coordinates":[103.85481847201595,1.2928245131605016]},"properties":{"OBJECTID":354,"NAME":"WAR MEMORIAL PK","X":30392.752,"Y":30579.495287580001}},{"type":"Feature","id":355,"geometry":{"type":"Point","coordinates":[103.8342551228348,1.2926204540505026]},"properties":{"OBJECTID":355,"NAME":"KIM SENG PK","X":28104.22923859,"Y":30556.921449990001}},{"type":"Feature","id":356,"geometry":{"type":"Point","coordinates":[103.84285301661774,1.3246275300266659]},"properties":{"OBJECTID":356,"NAME":"NOVENA RISE PK","X":29061.086950000001,"Y":34096.101242119999}},{"type":"Feature","id":357,"geometry":{"type":"Point","coordinates":[103.84584933421796,1.2984301269505807]},"properties":{"OBJECTID":357,"NAME":"DHOBY GHAUT GREEN","X":29394.561481379998,"Y":31199.328499989999}},{"type":"Feature","id":358,"geometry":{"type":"Point","coordinates":[103.84780697048458,1.2990570546594116]},"properties":{"OBJECTID":358,"NAME":"HANDY RD OS","X":29612.42863377,"Y":31268.652099989999}},{"type":"Feature","id":359,"geometry":{"type":"Point","coordinates":[103.80762186035389,1.3267341485452966]},"properties":{"OBJECTID":359,"NAME":"BOUGAINVILLEA PK","X":25140.21599388,"Y":34329.05309999}},{"type":"Feature","id":360,"geometry":{"type":"Point","coordinates":[103.81767447386102,1.3254507127857538]},"properties":{"OBJECTID":360,"NAME":"UNIVERSITY RD PK","X":26258.968971890001,"Y":34187.12799999}},{"type":"Feature","id":361,"geometry":{"type":"Point","coordinates":[103.80548695379504,1.3355062363588595]},"properties":{"OBJECTID":361,"NAME":"GREENWOOD CRESCENT PG","X":24902.6335,"Y":35299.028259610001}},{"type":"Feature","id":362,"geometry":{"type":"Point","coordinates":[103.80171316653193,1.335704021942395]},"properties":{"OBJECTID":362,"NAME":"ORCHID VILLAGE PG","X":24482.651000000002,"Y":35320.90345374}},{"type":"Feature","id":363,"geometry":{"type":"Point","coordinates":[103.81043241139626,1.328370121120348]},"properties":{"OBJECTID":363,"NAME":"SHELFORD RD PG","X":25453.003543250001,"Y":34509.94754999}},{"type":"Feature","id":364,"geometry":{"type":"Point","coordinates":[103.80818355774429,1.3315101656988075]},"properties":{"OBJECTID":364,"NAME":"WATTEN HEIGHTS PG","X":25202.73262155,"Y":34857.159999989999}},{"type":"Feature","id":365,"geometry":{"type":"Point","coordinates":[103.79658146709734,1.3232989310291234]},"properties":{"OBJECTID":365,"NAME":"NAMLY PK","X":23911.5265,"Y":33949.219778879997}},{"type":"Feature","id":366,"geometry":{"type":"Point","coordinates":[103.79128056190346,1.3224359361605311]},"properties":{"OBJECTID":366,"NAME":"SIXTH AVE PG","X":23321.587,"Y":33853.803596149999}},{"type":"Feature","id":367,"geometry":{"type":"Point","coordinates":[103.80606154202394,1.319086675112928]},"properties":{"OBJECTID":367,"NAME":"KING'S DR PG","X":24966.559110080001,"Y":33483.436499989999}},{"type":"Feature","id":368,"geometry":{"type":"Point","coordinates":[103.76477924872367,1.3276945793169321]},"properties":{"OBJECTID":368,"NAME":"SUNSET WAY PK","X":20372.269499999999,"Y":34435.343491899999}},{"type":"Feature","id":369,"geometry":{"type":"Point","coordinates":[103.76640642909675,1.3267878202224332]},"properties":{"OBJECTID":369,"NAME":"SUNSET WAY PG","X":20553.355500000001,"Y":34335.073665390002}},{"type":"Feature","id":370,"geometry":{"type":"Point","coordinates":[103.76886836516977,1.3279450080256581]},"properties":{"OBJECTID":370,"NAME":"SUNSET HEIGHTS OS","X":20827.3475,"Y":34463.022447470001}},{"type":"Feature","id":371,"geometry":{"type":"Point","coordinates":[103.77329951691915,1.3235224958162637]},"properties":{"OBJECTID":371,"NAME":"CLEMENTI CRESCENT PG","X":21320.477923099999,"Y":33973.990999989997}},{"type":"Feature","id":372,"geometry":{"type":"Point","coordinates":[103.7850595398033,1.3370105386444795]},"properties":{"OBJECTID":372,"NAME":"HUA GUAN CRESCENT PG","X":22629.280500000001,"Y":35465.401610150002}},{"type":"Feature","id":373,"geometry":{"type":"Point","coordinates":[103.78807923436081,1.3223225608427498]},"properties":{"OBJECTID":373,"NAME":"GREENLEAF VIEW PK PG","X":22965.310775369999,"Y":33841.273399990001}},{"type":"Feature","id":374,"geometry":{"type":"Point","coordinates":[103.7842062105903,1.3137632887413677]},"properties":{"OBJECTID":374,"NAME":"GROVE LANE PG","X":22534.262999999999,"Y":32894.840929999998}},{"type":"Feature","id":375,"geometry":{"type":"Point","coordinates":[103.78024635822102,1.3141149108976589]},"properties":{"OBJECTID":375,"NAME":"JLN KEBAYA PG","X":22093.57,"Y":32933.730453420001}},{"type":"Feature","id":376,"geometry":{"type":"Point","coordinates":[103.78109728549767,1.3157210166715099]},"properties":{"OBJECTID":376,"NAME":"MOUNT SINAI PLAIN PG","X":22188.27380495,"Y":33111.323549989997}},{"type":"Feature","id":377,"geometry":{"type":"Point","coordinates":[103.78278534837222,1.3124745780961788]},"properties":{"OBJECTID":377,"NAME":"HOLLAND GROVE VIEW FC","X":22376.13165789,"Y":32752.34499999}},{"type":"Feature","id":378,"geometry":{"type":"Point","coordinates":[103.78122162363572,1.3129296671523445]},"properties":{"OBJECTID":378,"NAME":"HOLLAND GROVE VIEW PG","X":22202.105047519999,"Y":32802.669999990001}},{"type":"Feature","id":379,"geometry":{"type":"Point","coordinates":[103.78257759536767,1.3268109004608926]},"properties":{"OBJECTID":379,"NAME":"HOLLAND GREEN PG","X":22353.04314636,"Y":34337.582999990002}},{"type":"Feature","id":380,"geometry":{"type":"Point","coordinates":[103.78089287498761,1.3415555200005544]},"properties":{"OBJECTID":380,"NAME":"MAYFAIR PK","X":22165.58551008,"Y":35967.972099990002}},{"type":"Feature","id":381,"geometry":{"type":"Point","coordinates":[103.78311800015676,1.3162571773594276]},"properties":{"OBJECTID":381,"NAME":"HENRY PK","X":22413.161049999999,"Y":33170.604817530002}},{"type":"Feature","id":382,"geometry":{"type":"Point","coordinates":[103.75723986270971,1.3758898083445705]},"properties":{"OBJECTID":382,"NAME":"PHOENIX PARK","X":19533.379000000001,"Y":39764.55508292}},{"type":"Feature","id":383,"geometry":{"type":"Point","coordinates":[103.77168301094926,1.3358863606370819]},"properties":{"OBJECTID":383,"NAME":"CHENG SOON GARDEN PG","X":21140.611000000001,"Y":35341.128958020003}},{"type":"Feature","id":384,"geometry":{"type":"Point","coordinates":[103.75897633995594,1.3586971700526591]},"properties":{"OBJECTID":384,"NAME":"CHU YEN PLAYGROUND","X":19726.568745199998,"Y":37863.472999990001}},{"type":"Feature","id":385,"geometry":{"type":"Point","coordinates":[103.76916336188069,1.3369237422732272]},"properties":{"OBJECTID":385,"NAME":"ENG KONG GARDEN PG","X":20860.2035,"Y":35455.844550089998}},{"type":"Feature","id":386,"geometry":{"type":"Point","coordinates":[103.76724604913917,1.334739202719321]},"properties":{"OBJECTID":386,"NAME":"ENG KONG PLACE FC","X":20646.820252379999,"Y":35214.294949989999}},{"type":"Feature","id":387,"geometry":{"type":"Point","coordinates":[103.76486852005382,1.3363236479287619]},"properties":{"OBJECTID":387,"NAME":"GOLDEN RISE PG","X":20382.231,"Y":35389.502146799998}},{"type":"Feature","id":388,"geometry":{"type":"Point","coordinates":[103.76576322902989,1.3342797127441772]},"properties":{"OBJECTID":388,"NAME":"GREENRIDGE CRESCENT PG","X":20481.7965,"Y":35163.491309520003}},{"type":"Feature","id":389,"geometry":{"type":"Point","coordinates":[103.75860584483674,1.3606389456498547]},"properties":{"OBJECTID":389,"NAME":"JALAN DERMAWAN PLAYGROUND","X":19685.343499999999,"Y":38078.186107410002}},{"type":"Feature","id":390,"geometry":{"type":"Point","coordinates":[103.76677601808633,1.3461378955794994]},"properties":{"OBJECTID":390,"NAME":"JALAN TEKUKOR PLAYGROUND","X":20594.544999999998,"Y":36474.706306840002}},{"type":"Feature","id":391,"geometry":{"type":"Point","coordinates":[103.77302025529794,1.3438755095027599]},"properties":{"OBJECTID":391,"NAME":"HOOVER PARK (LOR PISANG HIJAU PLAYGROUND)","X":21289.453986529999,"Y":36224.525049989999}},{"type":"Feature","id":392,"geometry":{"type":"Point","coordinates":[103.76592436149276,1.3404171846148629]},"properties":{"OBJECTID":392,"NAME":"HIGHGATE WALK PLAYGROUND","X":20499.747530979999,"Y":35842.141499990001}},{"type":"Feature","id":393,"geometry":{"type":"Point","coordinates":[103.76992667231652,1.3334144853864318]},"properties":{"OBJECTID":393,"NAME":"SAVOY PK PG","X":20945.1418806,"Y":35067.806549989997}},{"type":"Feature","id":394,"geometry":{"type":"Point","coordinates":[103.76116232991829,1.355262346001316]},"properties":{"OBJECTID":394,"NAME":"HILLVIEW CRESCENT PLAYGROUND","X":19969.83286373,"Y":37483.659999980002}},{"type":"Feature","id":395,"geometry":{"type":"Point","coordinates":[103.7609050344812,1.3398270199089037]},"properties":{"OBJECTID":395,"NAME":"BURGUNDY CRESCENT PLAYGROUND","X":19941.14805,"Y":35776.899987379998}},{"type":"Feature","id":396,"geometry":{"type":"Point","coordinates":[103.75197729239298,1.3722856733514091]},"properties":{"OBJECTID":396,"NAME":"PAVILION PARK PLAYGROUND","X":18947.70595,"Y":39366.047137319998}},{"type":"Feature","id":397,"geometry":{"type":"Point","coordinates":[103.80547941573253,1.3242903125405507]},"properties":{"OBJECTID":397,"NAME":"DUCHESS PK","X":24901.780549999999,"Y":34058.828803889999}},{"type":"Feature","id":398,"geometry":{"type":"Point","coordinates":[103.80180993643791,1.3219027993967765]},"properties":{"OBJECTID":398,"NAME":"VICTORIA PARK PLAYGROUND","X":24493.401000000002,"Y":33794.834748920002}},{"type":"Feature","id":399,"geometry":{"type":"Point","coordinates":[103.79259115095014,1.3299945741675625]},"properties":{"OBJECTID":399,"NAME":"MAPLE LANE PARK","X":23467.456300000002,"Y":34689.596819450002}},{"type":"Feature","id":400,"geometry":{"type":"Point","coordinates":[103.78401697245168,1.3271228350438102]},"properties":{"OBJECTID":400,"NAME":"HOLLAND GREEN LINEAR PARK","X":22513.231860759999,"Y":34372.071949990001}},{"type":"Feature","id":401,"geometry":{"type":"Point","coordinates":[103.76283334042782,1.2974744660733224]},"properties":{"OBJECTID":401,"NAME":"WEST COAST PARK","X":20155.61535,"Y":31093.762314650001}},{"type":"Feature","id":402,"geometry":{"type":"Point","coordinates":[103.76761685803038,1.2989335350094564]},"properties":{"OBJECTID":402,"NAME":"CLEMENTI WOODS PARK","X":20687.983049999999,"Y":31255.084415040001}},{"type":"Feature","id":403,"geometry":{"type":"Point","coordinates":[103.6929015341445,1.3374845229132715]},"properties":{"OBJECTID":403,"NAME":"YUNNAN PARK","X":12373.0605,"Y":35518.206565870001}},{"type":"Feature","id":404,"geometry":{"type":"Point","coordinates":[103.71859444158254,1.3400730144096729]},"properties":{"OBJECTID":404,"NAME":"LAKESIDE GROVE PLAYGROUND","X":15232.428449999999,"Y":35804.280683739998}},{"type":"Feature","id":405,"geometry":{"type":"Point","coordinates":[103.70105312473154,1.3518026478488101]},"properties":{"OBJECTID":405,"NAME":"WESTWOOD PARK PLAYGROUND","X":13280.334213489999,"Y":37101.38549999}},{"type":"Feature","id":406,"geometry":{"type":"Point","coordinates":[103.69953571293017,1.3536022354012149]},"properties":{"OBJECTID":406,"NAME":"WESTVILLE PLAYGROUND","X":13111.473940059999,"Y":37300.384499990003}},{"type":"Feature","id":407,"geometry":{"type":"Point","coordinates":[103.71705725432878,1.3397230462758167]},"properties":{"OBJECTID":407,"NAME":"LAKESIDE GROVE FITNESS CORNER","X":15061.353787870001,"Y":35765.590999979999}},{"type":"Feature","id":408,"geometry":{"type":"Point","coordinates":[103.76352509593494,1.307851607722101]},"properties":{"OBJECTID":408,"NAME":"JALAN MAS KUNING PLAYGROUND","X":20232.633459950001,"Y":32241.21194999}},{"type":"Feature","id":409,"geometry":{"type":"Point","coordinates":[103.76200681668604,1.3089863435762052]},"properties":{"OBJECTID":409,"NAME":"JALAN MAS PUTEH PLAYGROUND","X":20063.66663987,"Y":32366.689999990002}},{"type":"Feature","id":410,"geometry":{"type":"Point","coordinates":[103.748747848672,1.3174990770561843]},"properties":{"OBJECTID":410,"NAME":"PANDAN RESERVOIR FITNESS CORNER","X":18588.098108499998,"Y":33308.031249990003}},{"type":"Feature","id":411,"geometry":{"type":"Point","coordinates":[103.76472555154503,1.308703286123271]},"properties":{"OBJECTID":411,"NAME":"TAMAN MAS MERAH PLAYGROUND","X":20366.2356506,"Y":32335.382499989999}},{"type":"Feature","id":412,"geometry":{"type":"Point","coordinates":[103.75636016964519,1.3155603512098706]},"properties":{"OBJECTID":412,"NAME":"WEST COAST GREEN PLAYGROUND","X":19435.269499999999,"Y":33093.629201379998}},{"type":"Feature","id":413,"geometry":{"type":"Point","coordinates":[103.7584501679103,1.3142539349187183]},"properties":{"OBJECTID":413,"NAME":"WEST COAST PLACE PLAYGROUND","X":19667.862000000001,"Y":32949.165195699999}},{"type":"Feature","id":414,"geometry":{"type":"Point","coordinates":[103.75797647582053,1.3197672502536721]},"properties":{"OBJECTID":414,"NAME":"FABER HILLS PLAYGROUND","X":19615.162950000002,"Y":33558.801421960001}},{"type":"Feature","id":415,"geometry":{"type":"Point","coordinates":[103.75760856772879,1.3225526398909135]},"properties":{"OBJECTID":415,"NAME":"FABER HEIGHTS OPEN SPACE","X":19574.227758090001,"Y":33866.797049989997}},{"type":"Feature","id":416,"geometry":{"type":"Point","coordinates":[103.70787455681167,1.3379796517930498]},"properties":{"OBJECTID":416,"NAME":"JURONG CENTRAL PARK","X":14039.40595,"Y":35572.865341329998}},{"type":"Feature","id":417,"geometry":{"type":"Point","coordinates":[103.78392469711306,1.278746579452599]},"properties":{"OBJECTID":417,"NAME":"PASIR PANJANG PARK","X":22502.857735310001,"Y":29022.872899990001}},{"type":"Feature","id":418,"geometry":{"type":"Point","coordinates":[103.79031876843679,1.2843923645236939]},"properties":{"OBJECTID":418,"NAME":"KENT RIDGE PARK","X":23214.4771,"Y":29647.141989039999}},{"type":"Feature","id":419,"geometry":{"type":"Point","coordinates":[103.79018535239055,1.2790257618919407]},"properties":{"OBJECTID":419,"NAME":"JAMBOL PLACE PARK","X":23199.618999999999,"Y":29053.730893970001}},{"type":"Feature","id":420,"geometry":{"type":"Point","coordinates":[103.78895401879323,1.2795728370782351]},"properties":{"OBJECTID":420,"NAME":"CHWEE CHIAN PLAYGROUND","X":23062.5825,"Y":29114.226038469998}},{"type":"Feature","id":421,"geometry":{"type":"Point","coordinates":[103.79036831078187,1.3042782782065543]},"properties":{"OBJECTID":421,"NAME":"ONE-NORTH PARK","X":23220.027999999998,"Y":31846.02428926}},{"type":"Feature","id":422,"geometry":{"type":"Point","coordinates":[103.81933003105215,1.2705515087384658]},"properties":{"OBJECTID":422,"NAME":"MOUNT FABER PARK","X":26443.18219308,"Y":28116.655699989999}},{"type":"Feature","id":423,"geometry":{"type":"Point","coordinates":[103.81025373344491,1.2786594119326866]},"properties":{"OBJECTID":423,"NAME":"TELOK BLANGAH HILL PARK","X":25433.068104279999,"Y":29013.193049990001}},{"type":"Feature","id":424,"geometry":{"type":"Point","coordinates":[103.83179846135349,1.2907932306712451]},"properties":{"OBJECTID":424,"NAME":"GANGES AVE OS","X":27830.823872019999,"Y":30354.87654999}},{"type":"Feature","id":425,"geometry":{"type":"Point","coordinates":[103.82973723189947,1.283590396304199]},"properties":{"OBJECTID":425,"NAME":"KIM PONG PARK","X":27601.42555,"Y":29558.424485290001}},{"type":"Feature","id":426,"geometry":{"type":"Point","coordinates":[103.75243417872611,1.3672173562028183]},"properties":{"OBJECTID":426,"NAME":"BUKIT GOMBAK PARK","X":18998.533037370002,"Y":38805.616149989997}},{"type":"Feature","id":427,"geometry":{"type":"Point","coordinates":[103.94064313618165,1.363756342117129]},"properties":{"OBJECTID":427,"NAME":"TAMPINES BOULEVARD PARK","X":39943.960599999999,"Y":38423.029342469999}},{"type":"Feature","id":428,"geometry":{"type":"Point","coordinates":[103.87478098464692,1.3540401971512352]},"properties":{"OBJECTID":428,"NAME":"BOUNDARY ROAD PARK","X":32614.29405,"Y":37348.440831100001}},{"type":"Feature","id":429,"geometry":{"type":"Point","coordinates":[103.81904332032455,1.4487342398790399]},"properties":{"OBJECTID":429,"NAME":"PARK AT SEMBAWANG ALLEY","X":26411.39006079,"Y":47819.194499980003}},{"type":"Feature","id":430,"geometry":{"type":"Point","coordinates":[103.8271629651823,1.4438998767847262]},"properties":{"OBJECTID":430,"NAME":"JLN SENDUDOK PARK","X":27314.976350000001,"Y":47284.630793279997}},{"type":"Feature","id":431,"geometry":{"type":"Point","coordinates":[103.96992207870058,1.3639140016919415]},"properties":{"OBJECTID":431,"NAME":"TOH CLOSE INTERIM PARK","X":43202.366999999998,"Y":38440.627557059997}},{"type":"Feature","id":432,"geometry":{"type":"Point","coordinates":[103.93021604239304,1.3073206700428106]},"properties":{"OBJECTID":432,"NAME":"EAST COAST PARK AREA E1 CAR PARK","X":38783.79251195,"Y":32182.603549989999}},{"type":"Feature","id":433,"geometry":{"type":"Point","coordinates":[103.84999922976147,1.2885815772928457]},"properties":{"OBJECTID":433,"NAME":"PARLIAMENT PROMENADE","X":29856.41505,"Y":30110.329294719999}},{"type":"Feature","id":434,"geometry":{"type":"Point","coordinates":[104.00175372183348,1.3831593733995575]},"properties":{"OBJECTID":434,"NAME":"CHANGI BEACH PK","X":46744.714757289999,"Y":40568.916649990002}},{"type":"Feature","id":435,"geometry":{"type":"Point","coordinates":[103.8298393418044,1.443216249561224]},"properties":{"OBJECTID":435,"NAME":"NW502D","X":27612.815150800001,"Y":47209.038149979999}},{"type":"Feature","id":436,"geometry":{"type":"Point","coordinates":[103.72694973622696,1.3336633524010115]},"properties":{"OBJECTID":436,"NAME":"JLG: LAKESIDE GARDEN","X":16162.253849999999,"Y":35095.48985292}},{"type":"Feature","id":437,"geometry":{"type":"Point","coordinates":[103.85602245803376,1.3118468213994965]},"properties":{"OBJECTID":437,"NAME":"CITY GREEN","X":30526.726299999998,"Y":32682.885485269999}},{"type":"Feature","id":438,"geometry":{"type":"Point","coordinates":[103.82980087493317,1.2760758381495587]},"properties":{"OBJECTID":438,"NAME":"SILAT AVENUE PARK","X":27608.507424449999,"Y":28727.50354999}},{"type":"Feature","id":439,"geometry":{"type":"Point","coordinates":[103.79271594626627,1.4250692853583049]},"properties":{"OBJECTID":439,"NAME":"WOODLANDS HEALING GARDEN","X":23481.523930439998,"Y":45202.477599979997}},{"type":"Feature","id":440,"geometry":{"type":"Point","coordinates":[103.81536660776065,1.4029897819398731]},"properties":{"OBJECTID":440,"NAME":"MENG SUAN INTERIM PARK","X":26002.190750000002,"Y":42761.005405609998}},{"type":"Feature","id":441,"geometry":{"type":"Point","coordinates":[103.85025686606404,1.2834506208363536]},"properties":{"OBJECTID":441,"NAME":"MARKET STREET PARK","X":29885.0916,"Y":29542.974827990001}}]}